name,latitude,longitude,is_closed,zipcode,city,state,price,rating,url,review_count,transactions,category,id
Middle East Restaurant and Nightclub,42.3637902,-71.1012764,FALSE,2139,Cambridge,MA,$$,3.5,https://www.yelp.com/biz/middle-east-restaurant-and-nightclub-cambridge?adjust_creative=1oh4LhpLWuJDqe_L_DZdyw&utm_campaign=yelp_api_v3&utm_medium=api_v3_business_search&utm_source=1oh4LhpLWuJDqe_L_DZdyw,531,"['delivery', 'pickup']","mideastern,musicvenues,bars",YFkrZhuA1phCiJB1EJV39w
Boston Beer Works,42.3472099,-71.09913,FALSE,2215,Boston,MA,$$,3.5,https://www.yelp.com/biz/boston-beer-works-boston-2?adjust_creative=1oh4LhpLWuJDqe_L_DZdyw&utm_campaign=yelp_api_v3&utm_medium=api_v3_business_search&utm_source=1oh4LhpLWuJDqe_L_DZdyw,691,[],"breweries,tradamerican,beerbar",SNJhevBiD7xFvxiEJywMxw
Craigie On Main,42.3634818,-71.09861289,FALSE,2139,Cambridge,MA,$$$$,4,https://www.yelp.com/biz/craigie-on-main-cambridge?adjust_creative=1oh4LhpLWuJDqe_L_DZdyw&utm_campaign=yelp_api_v3&utm_medium=api_v3_business_search&utm_source=1oh4LhpLWuJDqe_L_DZdyw,1216,[],"newamerican,french,bars",58cDJU4cub1o0o0B4h9GrA
Gyro City,42.34316228,-71.09899293,FALSE,2215,Boston,MA,$,4,https://www.yelp.com/biz/gyro-city-boston?adjust_creative=1oh4LhpLWuJDqe_L_DZdyw&utm_campaign=yelp_api_v3&utm_medium=api_v3_business_search&utm_source=1oh4LhpLWuJDqe_L_DZdyw,283,"['delivery', 'pickup']","greek,mediterranean",KENZN5yZDjVQtKzwJ5gD6Q
Porcinis Italian Restaurant,42.36483,-71.1667,FALSE,2472,Watertown,MA,$$,4,https://www.yelp.com/biz/porcinis-italian-restaurant-watertown?adjust_creative=1oh4LhpLWuJDqe_L_DZdyw&utm_campaign=yelp_api_v3&utm_medium=api_v3_business_search&utm_source=1oh4LhpLWuJDqe_L_DZdyw,167,[],"italian,seafood,mediterranean",7200x8GYzQSeBzuiv3_4BA
Eastern Standard Kitchen & Drinks,42.34874032,-71.09601684,FALSE,2215,Boston,MA,$$$,4,https://www.yelp.com/biz/eastern-standard-kitchen-and-drinks-boston-3?adjust_creative=1oh4LhpLWuJDqe_L_DZdyw&utm_campaign=yelp_api_v3&utm_medium=api_v3_business_search&utm_source=1oh4LhpLWuJDqe_L_DZdyw,1749,[],"newamerican,lounges,breakfast_brunch",p8ohzzGvGRCHnJKnyO7exA
Cuchi Cuchi,42.36334,-71.09713,FALSE,2139,Cambridge,MA,$$$,4,https://www.yelp.com/biz/cuchi-cuchi-cambridge?adjust_creative=1oh4LhpLWuJDqe_L_DZdyw&utm_campaign=yelp_api_v3&utm_medium=api_v3_business_search&utm_source=1oh4LhpLWuJDqe_L_DZdyw,1066,[],"tapasmallplates,wine_bars,cocktailbars",C7FKNwSUlbUinT9cRSLXHA
Island Creek Oyster Bar,42.34868224,-71.09511845,FALSE,2215,Boston,MA,$$$,4.5,https://www.yelp.com/biz/island-creek-oyster-bar-boston?adjust_creative=1oh4LhpLWuJDqe_L_DZdyw&utm_campaign=yelp_api_v3&utm_medium=api_v3_business_search&utm_source=1oh4LhpLWuJDqe_L_DZdyw,2486,[],"seafood,bars",VnuD2cojPTWd3nIHQjnL8w
Trattoria Pulcinella,42.3827371,-71.13073979,FALSE,2138,Cambridge,MA,$$$,3,https://www.yelp.com/biz/trattoria-pulcinella-cambridge?adjust_creative=1oh4LhpLWuJDqe_L_DZdyw&utm_campaign=yelp_api_v3&utm_medium=api_v3_business_search&utm_source=1oh4LhpLWuJDqe_L_DZdyw,47,[],italian,6q5TIpdyLXLBvOv3wyizWA
Bondir Cambridge,42.3682904,-71.0977689,FALSE,2139,Cambridge,MA,$$$$,4,https://www.yelp.com/biz/bondir-cambridge-cambridge-2?adjust_creative=1oh4LhpLWuJDqe_L_DZdyw&utm_campaign=yelp_api_v3&utm_medium=api_v3_business_search&utm_source=1oh4LhpLWuJDqe_L_DZdyw,313,[],newamerican,T8DpRFty13MXLf6MB43aLg
Giulia,42.38251,-71.1200999,FALSE,2138,Cambridge,MA,$$$,4.5,https://www.yelp.com/biz/giulia-cambridge?adjust_creative=1oh4LhpLWuJDqe_L_DZdyw&utm_campaign=yelp_api_v3&utm_medium=api_v3_business_search&utm_source=1oh4LhpLWuJDqe_L_DZdyw,393,[],italian,9RH1xBIMMAZXg9s_XW_sLg
Temple Bar,42.38273,-71.12006,FALSE,2138,Cambridge,MA,$$,3.5,https://www.yelp.com/biz/temple-bar-cambridge?adjust_creative=1oh4LhpLWuJDqe_L_DZdyw&utm_campaign=yelp_api_v3&utm_medium=api_v3_business_search&utm_source=1oh4LhpLWuJDqe_L_DZdyw,487,[],"newamerican,bars",JZPPsLYmLCc9uwuolor7cQ
The Kirkland Tap & Trotter,42.378255,-71.106949,FALSE,2143,Somerville,MA,$$$,3.5,https://www.yelp.com/biz/the-kirkland-tap-and-trotter-somerville-2?adjust_creative=1oh4LhpLWuJDqe_L_DZdyw&utm_campaign=yelp_api_v3&utm_medium=api_v3_business_search&utm_source=1oh4LhpLWuJDqe_L_DZdyw,422,[],newamerican,u4dXemPMSM8TeDPmodFc2A
Oleana Restaurant,42.37055,-71.09713,FALSE,2139,Cambridge,MA,$$$,4.5,https://www.yelp.com/biz/oleana-restaurant-cambridge?adjust_creative=1oh4LhpLWuJDqe_L_DZdyw&utm_campaign=yelp_api_v3&utm_medium=api_v3_business_search&utm_source=1oh4LhpLWuJDqe_L_DZdyw,1366,[],mediterranean,kLr68qdt6nutZCuCMz5mDg
Deuxave,42.349521,-71.089166,FALSE,2115,Boston,MA,$$$,4,https://www.yelp.com/biz/deuxave-boston?adjust_creative=1oh4LhpLWuJDqe_L_DZdyw&utm_campaign=yelp_api_v3&utm_medium=api_v3_business_search&utm_source=1oh4LhpLWuJDqe_L_DZdyw,479,[],"newamerican,bars",E2De90kZUtXIS2dy-vn1yg
Midwest Grill Brazilian BBQ,42.37285302,-71.09603,FALSE,2139,Cambridge,MA,$$,3,https://www.yelp.com/biz/midwest-grill-brazilian-bbq-cambridge?adjust_creative=1oh4LhpLWuJDqe_L_DZdyw&utm_campaign=yelp_api_v3&utm_medium=api_v3_business_search&utm_source=1oh4LhpLWuJDqe_L_DZdyw,360,"['pickup', 'delivery']","steak,brazilian,bbq",TfSZgUu1Uxwcve7q1j5fLQ
Woody's Grill and Tap,42.344859,-71.089571,FALSE,2115,Boston,MA,$$,4,https://www.yelp.com/biz/woodys-grill-and-tap-boston-2?adjust_creative=1oh4LhpLWuJDqe_L_DZdyw&utm_campaign=yelp_api_v3&utm_medium=api_v3_business_search&utm_source=1oh4LhpLWuJDqe_L_DZdyw,257,[],"bars,tradamerican,pizza",R7peDyHzKTGilwo_1fjt3g
Shaking Crab - Cambridge,42.38729,-71.11839,FALSE,2140,Cambridge,MA,$$,3.5,https://www.yelp.com/biz/shaking-crab-cambridge-cambridge?adjust_creative=1oh4LhpLWuJDqe_L_DZdyw&utm_campaign=yelp_api_v3&utm_medium=api_v3_business_search&utm_source=1oh4LhpLWuJDqe_L_DZdyw,85,['restaurant_reservation'],"seafood,cajun",HU2iYyCPkmP1gxuKYoiKNg
Pho Basil,42.34576797,-71.08737183,FALSE,2115,Boston,MA,$$,4,https://www.yelp.com/biz/pho-basil-boston?adjust_creative=1oh4LhpLWuJDqe_L_DZdyw&utm_campaign=yelp_api_v3&utm_medium=api_v3_business_search&utm_source=1oh4LhpLWuJDqe_L_DZdyw,1017,"['delivery', 'pickup']","vietnamese,thai,seafood",PSp0P_3zWIQabA5HAIJBMQ
Cafe Mami,42.38743289,-71.11869726,FALSE,2140,Cambridge,MA,$,4,https://www.yelp.com/biz/cafe-mami-cambridge-4?adjust_creative=1oh4LhpLWuJDqe_L_DZdyw&utm_campaign=yelp_api_v3&utm_medium=api_v3_business_search&utm_source=1oh4LhpLWuJDqe_L_DZdyw,469,['delivery'],"japanese,salad,steak",zkUgoHp4cyCpOyrJKofX6A
Summer Shack-Boston,42.347067,-71.085658,FALSE,2115,Boston,MA,$$,3.5,https://www.yelp.com/biz/summer-shack-boston-boston-2?adjust_creative=1oh4LhpLWuJDqe_L_DZdyw&utm_campaign=yelp_api_v3&utm_medium=api_v3_business_search&utm_source=1oh4LhpLWuJDqe_L_DZdyw,776,"['delivery', 'pickup']","seafood,bars,tradamerican",I07zWZ_JGqVAp3ZPxIpDYg
Boston Shawarma,42.34111,-71.08778,FALSE,2115,Boston,MA,$,4,https://www.yelp.com/biz/boston-shawarma-boston-2?adjust_creative=1oh4LhpLWuJDqe_L_DZdyw&utm_campaign=yelp_api_v3&utm_medium=api_v3_business_search&utm_source=1oh4LhpLWuJDqe_L_DZdyw,357,"['delivery', 'pickup']","mideastern,halal,mediterranean",rpIRK9g0uM7Mao5jB39m3w
The Capital Grille,42.347811,-71.08511109,FALSE,2115,Boston,MA,$$$$,4.5,https://www.yelp.com/biz/the-capital-grille-boston?adjust_creative=1oh4LhpLWuJDqe_L_DZdyw&utm_campaign=yelp_api_v3&utm_medium=api_v3_business_search&utm_source=1oh4LhpLWuJDqe_L_DZdyw,830,[],"steak,seafood,wine_bars",XUepp8T9xSMBuvlEG_-DrQ
Select Oyster Bar,42.34861,-71.08411,FALSE,2115,Boston,MA,$$$,3.5,https://www.yelp.com/biz/select-oyster-bar-boston?adjust_creative=1oh4LhpLWuJDqe_L_DZdyw&utm_campaign=yelp_api_v3&utm_medium=api_v3_business_search&utm_source=1oh4LhpLWuJDqe_L_DZdyw,293,[],"seafood,bars",ZAV8c9iGKV8zWHxOpTxdYQ
Towne Stove and Spirits,42.3482841,-71.0834741,FALSE,2115,Boston,MA,$$$,3,https://www.yelp.com/biz/towne-stove-and-spirits-boston?adjust_creative=1oh4LhpLWuJDqe_L_DZdyw&utm_campaign=yelp_api_v3&utm_medium=api_v3_business_search&utm_source=1oh4LhpLWuJDqe_L_DZdyw,579,"['delivery', 'pickup']","newamerican,breakfast_brunch",JIBJ_1aH_gHgbLnAIX5hEw
Buk Kyung,42.3794757,-71.0955337,FALSE,2143,Somerville,MA,$$,3.5,https://www.yelp.com/biz/buk-kyung-somerville?adjust_creative=1oh4LhpLWuJDqe_L_DZdyw&utm_campaign=yelp_api_v3&utm_medium=api_v3_business_search&utm_source=1oh4LhpLWuJDqe_L_DZdyw,239,[],"korean,seafood",zL2-u9LuxmPzC9d5qnTkvQ
The Independent,42.379665,-71.094874,FALSE,2143,Somerville,MA,$$,3.5,https://www.yelp.com/biz/the-independent-somerville?adjust_creative=1oh4LhpLWuJDqe_L_DZdyw&utm_campaign=yelp_api_v3&utm_medium=api_v3_business_search&utm_source=1oh4LhpLWuJDqe_L_DZdyw,399,[],"bars,newamerican",xXj6XsEvpRJ0hMHAh9N02A
Top of the Hub,42.34856613,-71.08228754,FALSE,2199,Boston,MA,$$$,3.5,https://www.yelp.com/biz/top-of-the-hub-boston?adjust_creative=1oh4LhpLWuJDqe_L_DZdyw&utm_campaign=yelp_api_v3&utm_medium=api_v3_business_search&utm_source=1oh4LhpLWuJDqe_L_DZdyw,2019,[],"newamerican,wine_bars",Ug6ngfzLT_cPzSttve1OzQ
Canary Square,42.31977,-71.11197,FALSE,2130,Jamaica Plain,MA,$$,3,https://www.yelp.com/biz/canary-square-jamaica-plain?adjust_creative=1oh4LhpLWuJDqe_L_DZdyw&utm_campaign=yelp_api_v3&utm_medium=api_v3_business_search&utm_source=1oh4LhpLWuJDqe_L_DZdyw,527,[],"newamerican,breakfast_brunch,burgers",QvCYvbMNkRTe4UqVwmyb3w
Casa B Tapas and Cocktail & Rum Bar,42.3797093,-71.0942732,FALSE,2143,Somerville,MA,$$$,4,https://www.yelp.com/biz/casa-b-tapas-and-cocktail-and-rum-bar-somerville-2?adjust_creative=1oh4LhpLWuJDqe_L_DZdyw&utm_campaign=yelp_api_v3&utm_medium=api_v3_business_search&utm_source=1oh4LhpLWuJDqe_L_DZdyw,258,[],"caribbean,tapasmallplates,cocktailbars",1A9alCsYB5Z5PW3yvH1HnQ
Piattini,42.34969,-71.08122,FALSE,2116,Boston,MA,$$,4,https://www.yelp.com/biz/piattini-boston-3?adjust_creative=1oh4LhpLWuJDqe_L_DZdyw&utm_campaign=yelp_api_v3&utm_medium=api_v3_business_search&utm_source=1oh4LhpLWuJDqe_L_DZdyw,740,[],"italian,bars,salad",PUZSvR-nEHlhEi0gSADu7w
The Cheesecake Factory,42.345868,-71.081993,FALSE,2199,Boston,MA,$$,3,https://www.yelp.com/biz/the-cheesecake-factory-boston?adjust_creative=1oh4LhpLWuJDqe_L_DZdyw&utm_campaign=yelp_api_v3&utm_medium=api_v3_business_search&utm_source=1oh4LhpLWuJDqe_L_DZdyw,602,['delivery'],"newamerican,desserts",V5r0E89VSK0IDzZRvrhc3g
Atlantic Fish,42.34922179,-71.08112729,FALSE,2116,Boston,MA,$$$,4,https://www.yelp.com/biz/atlantic-fish-boston-3?adjust_creative=1oh4LhpLWuJDqe_L_DZdyw&utm_campaign=yelp_api_v3&utm_medium=api_v3_business_search&utm_source=1oh4LhpLWuJDqe_L_DZdyw,2251,['delivery'],"seafood,raw_food,cocktailbars",AGR_kBvN__I7aTl0rBywAg
Demos,42.3663721,-71.1821673,FALSE,2472,Watertown,MA,$,3.5,https://www.yelp.com/biz/demos-watertown?adjust_creative=1oh4LhpLWuJDqe_L_DZdyw&utm_campaign=yelp_api_v3&utm_medium=api_v3_business_search&utm_source=1oh4LhpLWuJDqe_L_DZdyw,94,['delivery'],"mediterranean,greek",0ulC3Jz1eXnJJ3v2kN5Xpg
Lucca Back Bay,42.3465561,-71.0799281,FALSE,2116,Boston,MA,$$$,4,https://www.yelp.com/biz/lucca-back-bay-boston?adjust_creative=1oh4LhpLWuJDqe_L_DZdyw&utm_campaign=yelp_api_v3&utm_medium=api_v3_business_search&utm_source=1oh4LhpLWuJDqe_L_DZdyw,300,[],"italian,wine_bars",4RpdVZIR3dV890pJ5hQd9A
SRV Boston,42.340918,-71.08161505,FALSE,2118,Boston,MA,$$$,4.5,https://www.yelp.com/biz/srv-boston-boston?adjust_creative=1oh4LhpLWuJDqe_L_DZdyw&utm_campaign=yelp_api_v3&utm_medium=api_v3_business_search&utm_source=1oh4LhpLWuJDqe_L_DZdyw,306,[],"italian,wine_bars",poswq7BdLM9Iryd9palDVQ
Lemon Thai Cuisine,42.39025,-71.10767,FALSE,2143,Somerville,MA,$$,4,https://www.yelp.com/biz/lemon-thai-cuisine-somerville-2?adjust_creative=1oh4LhpLWuJDqe_L_DZdyw&utm_campaign=yelp_api_v3&utm_medium=api_v3_business_search&utm_source=1oh4LhpLWuJDqe_L_DZdyw,296,"['delivery', 'pickup']","thai,seafood,soup",4k_wbk7GppLxBhfga3Fdjw
Social Restaurant & Bar,42.356596,-71.1868268,FALSE,2458,Newton,MA,$$,3.5,https://www.yelp.com/biz/social-restaurant-and-bar-newton?adjust_creative=1oh4LhpLWuJDqe_L_DZdyw&utm_campaign=yelp_api_v3&utm_medium=api_v3_business_search&utm_source=1oh4LhpLWuJDqe_L_DZdyw,150,[],"newamerican,bars,breakfast_brunch",DrQgIMe9fKfNvvHoXO8Y0w
Max and Leo's,42.3569993,-71.1868365,FALSE,2458,Newton,MA,$$,4.5,https://www.yelp.com/biz/max-and-leos-newton?adjust_creative=1oh4LhpLWuJDqe_L_DZdyw&utm_campaign=yelp_api_v3&utm_medium=api_v3_business_search&utm_source=1oh4LhpLWuJDqe_L_DZdyw,337,[],"pizza,bars",3ysQylsFQj7JNIlQjncQeQ
House of Siam,42.34141,-71.08033,FALSE,2118,Boston,MA,$$,3.5,https://www.yelp.com/biz/house-of-siam-boston?adjust_creative=1oh4LhpLWuJDqe_L_DZdyw&utm_campaign=yelp_api_v3&utm_medium=api_v3_business_search&utm_source=1oh4LhpLWuJDqe_L_DZdyw,176,"['delivery', 'pickup']","thai,seafood",PygaMm6O5n1UDHrbnm7uBg
Sorellina,42.34883672,-71.07790366,FALSE,2116,Boston,MA,$$$$,4,https://www.yelp.com/biz/sorellina-boston?adjust_creative=1oh4LhpLWuJDqe_L_DZdyw&utm_campaign=yelp_api_v3&utm_medium=api_v3_business_search&utm_source=1oh4LhpLWuJDqe_L_DZdyw,637,[],"italian,bars,salad",1hWZ0K2DOKZB9Xft08VZ9g
Lolita Cocina & Tequila Bar Back Bay,42.35058604,-71.07750847,FALSE,2116,Boston,MA,$$,4,https://www.yelp.com/biz/lolita-cocina-and-tequila-bar-back-bay-boston?adjust_creative=1oh4LhpLWuJDqe_L_DZdyw&utm_campaign=yelp_api_v3&utm_medium=api_v3_business_search&utm_source=1oh4LhpLWuJDqe_L_DZdyw,1778,[],"mexican,lounges,cocktailbars",u51e3gychuqBYNqe2xG6_w
Fogo de Cḥo Brazilian Steakhouse,42.34880756,-71.0771622,FALSE,2116,Boston,MA,$$$,4,https://www.yelp.com/biz/fogo-de-ch%C3%A3o-brazilian-steakhouse-boston-4?adjust_creative=1oh4LhpLWuJDqe_L_DZdyw&utm_campaign=yelp_api_v3&utm_medium=api_v3_business_search&utm_source=1oh4LhpLWuJDqe_L_DZdyw,648,[],"brazilian,steak",3G3GvCsArfZrhoRrIYxDkw
Legal Sea Foods,42.34690284,-71.07746634,FALSE,2116,Boston,MA,$$$,3.5,https://www.yelp.com/biz/legal-sea-foods-boston-32?adjust_creative=1oh4LhpLWuJDqe_L_DZdyw&utm_campaign=yelp_api_v3&utm_medium=api_v3_business_search&utm_source=1oh4LhpLWuJDqe_L_DZdyw,505,[],seafood,Rr7rhulFCpGvO341g-EWVg
Thai Basil Restaurant,42.35092,-71.07669,FALSE,2116,Boston,MA,$$,3.5,https://www.yelp.com/biz/thai-basil-restaurant-boston-2?adjust_creative=1oh4LhpLWuJDqe_L_DZdyw&utm_campaign=yelp_api_v3&utm_medium=api_v3_business_search&utm_source=1oh4LhpLWuJDqe_L_DZdyw,413,"['delivery', 'pickup']","thai,seafood,noodles",XWF0qtV3GxkgfdvAjwpfzQ
Redbones BBQ,42.39520645,-71.12236023,FALSE,2144,Somerville,MA,$$,3.5,https://www.yelp.com/biz/redbones-bbq-somerville?adjust_creative=1oh4LhpLWuJDqe_L_DZdyw&utm_campaign=yelp_api_v3&utm_medium=api_v3_business_search&utm_source=1oh4LhpLWuJDqe_L_DZdyw,1664,"['delivery', 'pickup']","bbq,bars,sandwiches",FmAIHFqUBNkCw3YBCRQLmQ
Petit Robert Bistro,42.34283,-71.07858,FALSE,2118,Boston,MA,$$,3.5,https://www.yelp.com/biz/petit-robert-bistro-boston-3?adjust_creative=1oh4LhpLWuJDqe_L_DZdyw&utm_campaign=yelp_api_v3&utm_medium=api_v3_business_search&utm_source=1oh4LhpLWuJDqe_L_DZdyw,374,"['delivery', 'pickup']","french,breakfast_brunch,wine_bars",XgJWwSXomuSblxFBE-AxpA
Legal Sea Foods,42.32257,-71.17038,FALSE,2467,Chestnut Hill,MA,$$$,3,https://www.yelp.com/biz/legal-sea-foods-chestnut-hill-6?adjust_creative=1oh4LhpLWuJDqe_L_DZdyw&utm_campaign=yelp_api_v3&utm_medium=api_v3_business_search&utm_source=1oh4LhpLWuJDqe_L_DZdyw,233,['delivery'],seafood,hewGudgB-tUk2ADWsUIHlg
Giacomo's,42.34406,-71.077732,FALSE,2116,Boston,MA,$$,4,https://www.yelp.com/biz/giacomos-boston?adjust_creative=1oh4LhpLWuJDqe_L_DZdyw&utm_campaign=yelp_api_v3&utm_medium=api_v3_business_search&utm_source=1oh4LhpLWuJDqe_L_DZdyw,1126,[],"italian,seafood,wine_bars",q5HPp961WsjoVDaOmN8SwQ
Anchovies,42.343939,-71.077598,FALSE,2116,Boston,MA,$$,4,https://www.yelp.com/biz/anchovies-boston?adjust_creative=1oh4LhpLWuJDqe_L_DZdyw&utm_campaign=yelp_api_v3&utm_medium=api_v3_business_search&utm_source=1oh4LhpLWuJDqe_L_DZdyw,349,[],"italian,bars,salad",EYMC8NHn6U-4WpLo54dQtw
Gaya Pizzeria,42.38452,-71.09302,FALSE,2143,Somerville,MA,$,4.5,https://www.yelp.com/biz/gaya-pizzeria-somerville?adjust_creative=1oh4LhpLWuJDqe_L_DZdyw&utm_campaign=yelp_api_v3&utm_medium=api_v3_business_search&utm_source=1oh4LhpLWuJDqe_L_DZdyw,56,"['pickup', 'delivery']","pizza,italian",uCN25MmdW27fZ2UJQ-tU4Q
Foundry on Elm,42.39564,-71.12166,FALSE,2144,Somerville,MA,$$,3.5,https://www.yelp.com/biz/foundry-on-elm-somerville?adjust_creative=1oh4LhpLWuJDqe_L_DZdyw&utm_campaign=yelp_api_v3&utm_medium=api_v3_business_search&utm_source=1oh4LhpLWuJDqe_L_DZdyw,726,[],"bars,gastropubs,newamerican",9-KBO2jGuvMCrM88ysDLTA
Greek Corner Restaurant,42.39648943,-71.12948206,FALSE,2140,Cambridge,MA,$$,4,https://www.yelp.com/biz/greek-corner-restaurant-cambridge?adjust_creative=1oh4LhpLWuJDqe_L_DZdyw&utm_campaign=yelp_api_v3&utm_medium=api_v3_business_search&utm_source=1oh4LhpLWuJDqe_L_DZdyw,600,"['pickup', 'delivery']","greek,mediterranean",u0CvoJ_bAx5SCSiI_meUOQ
Five Horses Tavern,42.39567,-71.1208599,FALSE,2144,Somerville,MA,$$,3.5,https://www.yelp.com/biz/five-horses-tavern-somerville?adjust_creative=1oh4LhpLWuJDqe_L_DZdyw&utm_campaign=yelp_api_v3&utm_medium=api_v3_business_search&utm_source=1oh4LhpLWuJDqe_L_DZdyw,695,[],"beerbar,newamerican,tacos",nq902iEwTCZv-EzZV2wHQA
Davio's Chestnut Hill,42.32251399,-71.17025011,FALSE,2467,Chestnut Hill,MA,$$$,3.5,https://www.yelp.com/biz/davios-chestnut-hill-chestnut-hill-2?adjust_creative=1oh4LhpLWuJDqe_L_DZdyw&utm_campaign=yelp_api_v3&utm_medium=api_v3_business_search&utm_source=1oh4LhpLWuJDqe_L_DZdyw,107,"['pickup', 'delivery']","italian,steak,gluten_free",9LPokpPIiNCC5ilJXwX_rQ
The Talk,42.36699,-71.18738,FALSE,2472,Watertown,MA,$$,3.5,https://www.yelp.com/biz/the-talk-watertown-2?adjust_creative=1oh4LhpLWuJDqe_L_DZdyw&utm_campaign=yelp_api_v3&utm_medium=api_v3_business_search&utm_source=1oh4LhpLWuJDqe_L_DZdyw,278,"['pickup', 'delivery']","tradamerican,italian",9jlK2GUXrk40TbN1yTSMJw
Coda,42.3462394,-71.0750068,FALSE,2116,Boston,MA,$$,4,https://www.yelp.com/biz/coda-boston?adjust_creative=1oh4LhpLWuJDqe_L_DZdyw&utm_campaign=yelp_api_v3&utm_medium=api_v3_business_search&utm_source=1oh4LhpLWuJDqe_L_DZdyw,559,[],"newamerican,burgers,cocktailbars",#NAME?
Post 390,42.34886388,-71.0740035,FALSE,2116,Boston,MA,$$$,3.5,https://www.yelp.com/biz/post-390-boston?adjust_creative=1oh4LhpLWuJDqe_L_DZdyw&utm_campaign=yelp_api_v3&utm_medium=api_v3_business_search&utm_source=1oh4LhpLWuJDqe_L_DZdyw,614,['delivery'],"bars,newamerican",nlnWODemnfzut10tzC5x3A
The Table at Season to Taste,42.3983409,-71.1310318,FALSE,2140,Cambridge,MA,$$$$,4.5,https://www.yelp.com/biz/the-table-at-season-to-taste-cambridge?adjust_creative=1oh4LhpLWuJDqe_L_DZdyw&utm_campaign=yelp_api_v3&utm_medium=api_v3_business_search&utm_source=1oh4LhpLWuJDqe_L_DZdyw,154,[],newamerican,WkjIWu8rIpAAUhnqsuik9w
The Brahmin,42.3484325,-71.0731806,FALSE,2116,Boston,MA,$$,3,https://www.yelp.com/biz/the-brahmin-boston?adjust_creative=1oh4LhpLWuJDqe_L_DZdyw&utm_campaign=yelp_api_v3&utm_medium=api_v3_business_search&utm_source=1oh4LhpLWuJDqe_L_DZdyw,371,['delivery'],"newamerican,cocktailbars",vCaaXCYqpBsxJy2kBR67IA
FiRE + iCE  Grill + Bar,42.35066,-71.07249,FALSE,2116,Boston,MA,$$,3,https://www.yelp.com/biz/fire-ice-grill-bar-boston?adjust_creative=1oh4LhpLWuJDqe_L_DZdyw&utm_campaign=yelp_api_v3&utm_medium=api_v3_business_search&utm_source=1oh4LhpLWuJDqe_L_DZdyw,621,[],"mongolian,tradamerican,cocktailbars",dz2OSto01aMIWkGHXd8lOg
Mistral,42.34815783,-71.07275914,FALSE,2116,Boston,MA,$$$$,4,https://www.yelp.com/biz/mistral-boston?adjust_creative=1oh4LhpLWuJDqe_L_DZdyw&utm_campaign=yelp_api_v3&utm_medium=api_v3_business_search&utm_source=1oh4LhpLWuJDqe_L_DZdyw,895,[],french,VH0Ib9S3E-dxbQdQC4rffg
Delux Caf̩,42.34628,-71.07289,FALSE,2116,Boston,MA,$$,4,https://www.yelp.com/biz/delux-caf%C3%A9-boston-2?adjust_creative=1oh4LhpLWuJDqe_L_DZdyw&utm_campaign=yelp_api_v3&utm_medium=api_v3_business_search&utm_source=1oh4LhpLWuJDqe_L_DZdyw,295,[],"bars,tradamerican",zZ7roMv_c8R4slTMPPdkng
Grill 23 & Bar,42.34942187,-71.07205006,FALSE,2116,Boston,MA,$$$$,4,https://www.yelp.com/biz/grill-23-and-bar-boston?adjust_creative=1oh4LhpLWuJDqe_L_DZdyw&utm_campaign=yelp_api_v3&utm_medium=api_v3_business_search&utm_source=1oh4LhpLWuJDqe_L_DZdyw,913,[],"seafood,steak,wine_bars",_98MfEQ67r9-V78gmy8_Pg
Toro,42.33696319,-71.07589408,FALSE,2118,Boston,MA,$$$,4,https://www.yelp.com/biz/toro-boston-2?adjust_creative=1oh4LhpLWuJDqe_L_DZdyw&utm_campaign=yelp_api_v3&utm_medium=api_v3_business_search&utm_source=1oh4LhpLWuJDqe_L_DZdyw,1932,[],"tapas,spanish,cocktailbars",NYa-JphaaB41ElGsb3iawA
75 Chestnut,42.35695,-71.07097,FALSE,2108,Boston,MA,$$,4,https://www.yelp.com/biz/75-chestnut-boston?adjust_creative=1oh4LhpLWuJDqe_L_DZdyw&utm_campaign=yelp_api_v3&utm_medium=api_v3_business_search&utm_source=1oh4LhpLWuJDqe_L_DZdyw,431,[],"newamerican,diners,steak",qVNYCZi2ofv-oe293JsYkg
Stephi's on Tremont,42.3436382,-71.07257,FALSE,2118,Boston,MA,$$,3.5,https://www.yelp.com/biz/stephis-on-tremont-boston?adjust_creative=1oh4LhpLWuJDqe_L_DZdyw&utm_campaign=yelp_api_v3&utm_medium=api_v3_business_search&utm_source=1oh4LhpLWuJDqe_L_DZdyw,459,['delivery'],"newamerican,comfortfood,bars",G2qQ72XEMVW4A9SNDHGwOg
Da Vinci,42.3493148,-71.07076,FALSE,2116,Boston,MA,$$$,4.5,https://www.yelp.com/biz/da-vinci-boston?adjust_creative=1oh4LhpLWuJDqe_L_DZdyw&utm_campaign=yelp_api_v3&utm_medium=api_v3_business_search&utm_source=1oh4LhpLWuJDqe_L_DZdyw,391,['delivery'],italian,gCsidBqhALICug9E2AphCw
The Paramount,42.357291,-71.070088,FALSE,2114,Boston,MA,$$,4,https://www.yelp.com/biz/the-paramount-boston?adjust_creative=1oh4LhpLWuJDqe_L_DZdyw&utm_campaign=yelp_api_v3&utm_medium=api_v3_business_search&utm_source=1oh4LhpLWuJDqe_L_DZdyw,1458,[],"breakfast_brunch,newamerican,sandwiches",sRNcBkZrs2bOrijfElHVyQ
The Butcher Shop,42.34376,-71.071454,FALSE,2118,Boston,MA,$$$,4,https://www.yelp.com/biz/the-butcher-shop-boston?adjust_creative=1oh4LhpLWuJDqe_L_DZdyw&utm_campaign=yelp_api_v3&utm_medium=api_v3_business_search&utm_source=1oh4LhpLWuJDqe_L_DZdyw,481,[],"steak,butcher,modern_european",5LEP8Rcb4_To8amoZodtow
Toscano Restaurant,42.35740838,-71.06984731,FALSE,2114,Boston,MA,$$$,4,https://www.yelp.com/biz/toscano-restaurant-boston?adjust_creative=1oh4LhpLWuJDqe_L_DZdyw&utm_campaign=yelp_api_v3&utm_medium=api_v3_business_search&utm_source=1oh4LhpLWuJDqe_L_DZdyw,456,[],italian,CB0KEBdcItjSDMOkcv7QtA
Bin 26 Enoteca,42.35679973,-71.06978416,FALSE,2114,Boston,MA,$$$,3.5,https://www.yelp.com/biz/bin-26-enoteca-boston?adjust_creative=1oh4LhpLWuJDqe_L_DZdyw&utm_campaign=yelp_api_v3&utm_medium=api_v3_business_search&utm_source=1oh4LhpLWuJDqe_L_DZdyw,243,[],"italian,wine_bars",nBG0C0J7bnBnUMB39F5O-A
B&G Oysters,42.34388,-71.07123,FALSE,2116,Boston,MA,$$$,4,https://www.yelp.com/biz/b-and-g-oysters-boston?adjust_creative=1oh4LhpLWuJDqe_L_DZdyw&utm_campaign=yelp_api_v3&utm_medium=api_v3_business_search&utm_source=1oh4LhpLWuJDqe_L_DZdyw,952,[],"seafood,wine_bars",mxjVk5rvPNhzYe_vt3OSQA
CLINK.,42.362238,-71.070537,FALSE,2114,Boston,MA,$$$,3,https://www.yelp.com/biz/clink-boston?adjust_creative=1oh4LhpLWuJDqe_L_DZdyw&utm_campaign=yelp_api_v3&utm_medium=api_v3_business_search&utm_source=1oh4LhpLWuJDqe_L_DZdyw,367,[],"newamerican,lounges",DkuCJwpeiGhW41EEcOKweg
Stella,42.33994,-71.0725,FALSE,2118,Boston,MA,$$$,4,https://www.yelp.com/biz/stella-boston?adjust_creative=1oh4LhpLWuJDqe_L_DZdyw&utm_campaign=yelp_api_v3&utm_medium=api_v3_business_search&utm_source=1oh4LhpLWuJDqe_L_DZdyw,761,[],"italian,wine_bars",MjpH-uP90jTUp_KqAOiBJg
Barcelona Wine Bar South End,42.34493551,-71.07054364,FALSE,2116,Boston,MA,$$,4.5,https://www.yelp.com/biz/barcelona-wine-bar-south-end-boston-6?adjust_creative=1oh4LhpLWuJDqe_L_DZdyw&utm_campaign=yelp_api_v3&utm_medium=api_v3_business_search&utm_source=1oh4LhpLWuJDqe_L_DZdyw,862,[],"spanish,wine_bars,tapasmallplates",mP1EdIafQKMuOm9O4PzAfA
Seasons 52,42.31979123,-71.17530795,FALSE,2467,Chestnut Hill,MA,$$,3,https://www.yelp.com/biz/seasons-52-chestnut-hill?adjust_creative=1oh4LhpLWuJDqe_L_DZdyw&utm_campaign=yelp_api_v3&utm_medium=api_v3_business_search&utm_source=1oh4LhpLWuJDqe_L_DZdyw,289,[],"newamerican,wine_bars,seafood",Mj9P_ON9YPDmFV4GJXYYYA
MJ O'Connor's Irish Pub,42.35115977,-71.06891883,FALSE,2116,Boston,MA,$$,3,https://www.yelp.com/biz/mj-o-connors-irish-pub-boston?adjust_creative=1oh4LhpLWuJDqe_L_DZdyw&utm_campaign=yelp_api_v3&utm_medium=api_v3_business_search&utm_source=1oh4LhpLWuJDqe_L_DZdyw,220,[],"tradamerican,irish_pubs",uMZoY7AyG08rnN-YiQN7fA
Brio Tuscan Grille,42.31914,-71.17484,FALSE,2467,Chestnut Hill,MA,$$,3,https://www.yelp.com/biz/brio-tuscan-grille-chestnut-hill?adjust_creative=1oh4LhpLWuJDqe_L_DZdyw&utm_campaign=yelp_api_v3&utm_medium=api_v3_business_search&utm_source=1oh4LhpLWuJDqe_L_DZdyw,176,"['pickup', 'delivery']","italian,bars",XDe1BMq0C7ljuW3a6WoAwg
Menotomy Grill & Tavern,42.40164086,-71.13676599,FALSE,2474,Arlington,MA,$$,3.5,https://www.yelp.com/biz/menotomy-grill-and-tavern-arlington?adjust_creative=1oh4LhpLWuJDqe_L_DZdyw&utm_campaign=yelp_api_v3&utm_medium=api_v3_business_search&utm_source=1oh4LhpLWuJDqe_L_DZdyw,320,[],"tradamerican,pubs",QhhOFdwFrgHFjrUYlI67IA
Fleming's Prime Steakhouse & Wine Bar - Boston,42.35069677,-71.0680538,FALSE,2116,Boston,MA,$$$,4,https://www.yelp.com/biz/flemings-prime-steakhouse-and-wine-bar-boston-boston?adjust_creative=1oh4LhpLWuJDqe_L_DZdyw&utm_campaign=yelp_api_v3&utm_medium=api_v3_business_search&utm_source=1oh4LhpLWuJDqe_L_DZdyw,622,['delivery'],"wine_bars,steak,seafood",AG1ETqbneinRRJUeA8PfSA
Pescatore,42.39927205,-71.11146293,FALSE,2144,Somerville,MA,$$,4,https://www.yelp.com/biz/pescatore-somerville?adjust_creative=1oh4LhpLWuJDqe_L_DZdyw&utm_campaign=yelp_api_v3&utm_medium=api_v3_business_search&utm_source=1oh4LhpLWuJDqe_L_DZdyw,272,"['delivery', 'pickup']","italian,seafood",U4ppRbaM8K12j3oOyirXXg
Noor Mediterranean Grill,42.400549,-71.117545,FALSE,2144,Somerville,MA,$$,4.5,https://www.yelp.com/biz/noor-mediterranean-grill-somerville?adjust_creative=1oh4LhpLWuJDqe_L_DZdyw&utm_campaign=yelp_api_v3&utm_medium=api_v3_business_search&utm_source=1oh4LhpLWuJDqe_L_DZdyw,193,"['delivery', 'pickup']","mediterranean,mideastern,salad",Kx3hGswNK6iuMb53KUcsvg
Sound Bites,42.39976501,-71.11243439,FALSE,2144,Somerville,MA,$$,3.5,https://www.yelp.com/biz/sound-bites-somerville?adjust_creative=1oh4LhpLWuJDqe_L_DZdyw&utm_campaign=yelp_api_v3&utm_medium=api_v3_business_search&utm_source=1oh4LhpLWuJDqe_L_DZdyw,966,[],"breakfast_brunch,mideastern,mediterranean",mIZTif2mj2-CozNOOTFFpg
The Gallows,42.3413899,-71.07019,FALSE,2118,Boston,MA,$$,4,https://www.yelp.com/biz/the-gallows-boston?adjust_creative=1oh4LhpLWuJDqe_L_DZdyw&utm_campaign=yelp_api_v3&utm_medium=api_v3_business_search&utm_source=1oh4LhpLWuJDqe_L_DZdyw,796,[],"burgers,bars,tradamerican",5HMXgD_gui5n0Tc_hadesg
Sabur,42.4021175,-71.1268009,FALSE,2144,Somerville,MA,$$,4,https://www.yelp.com/biz/sabur-somerville?adjust_creative=1oh4LhpLWuJDqe_L_DZdyw&utm_campaign=yelp_api_v3&utm_medium=api_v3_business_search&utm_source=1oh4LhpLWuJDqe_L_DZdyw,231,['delivery'],mediterranean,QaKYHTjR7ZygxaFUskdMEA
Tavern at the End of the World,42.38218,-71.07938,FALSE,2129,Charlestown,MA,$$,4,https://www.yelp.com/biz/tavern-at-the-end-of-the-world-charlestown-2?adjust_creative=1oh4LhpLWuJDqe_L_DZdyw&utm_campaign=yelp_api_v3&utm_medium=api_v3_business_search&utm_source=1oh4LhpLWuJDqe_L_DZdyw,198,[],"pubs,newamerican",bqC8cTtPJmSAW6NUVHV9YQ
Coppa Enoteca,42.34346,-71.06873,FALSE,2118,Boston,MA,$$$,4,https://www.yelp.com/biz/coppa-enoteca-boston?adjust_creative=1oh4LhpLWuJDqe_L_DZdyw&utm_campaign=yelp_api_v3&utm_medium=api_v3_business_search&utm_source=1oh4LhpLWuJDqe_L_DZdyw,777,['delivery'],"italian,tapasmallplates",GwwX5JjuOVpw0ZlBvCqEOg
Ostra,42.35109512,-71.06709123,FALSE,2116,Boston,MA,$$$$,4.5,https://www.yelp.com/biz/ostra-boston?adjust_creative=1oh4LhpLWuJDqe_L_DZdyw&utm_campaign=yelp_api_v3&utm_medium=api_v3_business_search&utm_source=1oh4LhpLWuJDqe_L_DZdyw,361,[],seafood,_muVoNc4H_H_557WJvVWWQ
The Capital Grille,42.31921052,-71.17767522,FALSE,2467,Chestnut Hill,MA,$$$$,4,https://www.yelp.com/biz/the-capital-grille-chestnut-hill-2?adjust_creative=1oh4LhpLWuJDqe_L_DZdyw&utm_campaign=yelp_api_v3&utm_medium=api_v3_business_search&utm_source=1oh4LhpLWuJDqe_L_DZdyw,259,[],"steak,seafood,wine_bars",wITbeprsnf9wt1CYHIf4Dw
Fat Hen Broadway East,42.38776512,-71.08415312,FALSE,2145,Somerville,MA,$$$,4,https://www.yelp.com/biz/fat-hen-broadway-east-somerville-2?adjust_creative=1oh4LhpLWuJDqe_L_DZdyw&utm_campaign=yelp_api_v3&utm_medium=api_v3_business_search&utm_source=1oh4LhpLWuJDqe_L_DZdyw,61,[],"italian,wine_bars",wt-fwK_Y4WmJ0HBui4EsIQ
Vinny's Ristorante,42.3868057,-71.081687,FALSE,2145,Somerville,MA,$$,4,https://www.yelp.com/biz/vinnys-ristorante-somerville?adjust_creative=1oh4LhpLWuJDqe_L_DZdyw&utm_campaign=yelp_api_v3&utm_medium=api_v3_business_search&utm_source=1oh4LhpLWuJDqe_L_DZdyw,308,['delivery'],"italian,sandwiches,wine_bars",vyE6uuzEcB8vl11skeofrQ
Gaslight,42.34096779,-71.06739019,FALSE,2118,Boston,MA,$$,4,https://www.yelp.com/biz/gaslight-brasserie-boston-5?adjust_creative=1oh4LhpLWuJDqe_L_DZdyw&utm_campaign=yelp_api_v3&utm_medium=api_v3_business_search&utm_source=1oh4LhpLWuJDqe_L_DZdyw,1839,"['delivery', 'pickup']","french,newamerican,cocktailbars",5TsjdwNt10gxGChQtGGpdg
Myers & Chang,42.34381873,-71.06625027,FALSE,2118,Boston,MA,$$,4,https://www.yelp.com/biz/myers-and-chang-boston?adjust_creative=1oh4LhpLWuJDqe_L_DZdyw&utm_campaign=yelp_api_v3&utm_medium=api_v3_business_search&utm_source=1oh4LhpLWuJDqe_L_DZdyw,1473,[],"asianfusion,taiwanese,cocktailbars",72PQGMhrEcIuWH-S44TprA
Genki Ya - Boston,42.35123819,-71.06469771,FALSE,2116,Boston,MA,$$,3.5,https://www.yelp.com/biz/genki-ya-boston-boston?adjust_creative=1oh4LhpLWuJDqe_L_DZdyw&utm_campaign=yelp_api_v3&utm_medium=api_v3_business_search&utm_source=1oh4LhpLWuJDqe_L_DZdyw,426,"['delivery', 'pickup']","sushi,japanese,bars",0s8iv660dB30pHK4W1r6KA
Montien Thai Restaurant,42.35120383,-71.06438564,FALSE,2116,Boston,MA,$$,3.5,https://www.yelp.com/biz/montien-thai-restaurant-boston-8?adjust_creative=1oh4LhpLWuJDqe_L_DZdyw&utm_campaign=yelp_api_v3&utm_medium=api_v3_business_search&utm_source=1oh4LhpLWuJDqe_L_DZdyw,417,"['delivery', 'pickup']","thai,seafood,cocktailbars",W2YNtO5W_ZK6o-1t8uLcYw
Explorateur,42.35250415,-71.0645898,FALSE,2116,Boston,MA,$$,3,https://www.yelp.com/biz/explorateur-boston-2?adjust_creative=1oh4LhpLWuJDqe_L_DZdyw&utm_campaign=yelp_api_v3&utm_medium=api_v3_business_search&utm_source=1oh4LhpLWuJDqe_L_DZdyw,210,[],"french,bars,newamerican",dy-XO6rRE1cAMMrpMDQRrw
Cinquecento,42.34191,-71.06592,FALSE,2118,Boston,MA,$$$,4,https://www.yelp.com/biz/cinquecento-boston-2?adjust_creative=1oh4LhpLWuJDqe_L_DZdyw&utm_campaign=yelp_api_v3&utm_medium=api_v3_business_search&utm_source=1oh4LhpLWuJDqe_L_DZdyw,475,['delivery'],"italian,seafood,bars",5rINmqRcMlJCBR3vwMKbtg
Artisan Bistro,42.35304558,-71.0635335,FALSE,2111,Boston,MA,$$$,3,https://www.yelp.com/biz/artisan-bistro-boston-3?adjust_creative=1oh4LhpLWuJDqe_L_DZdyw&utm_campaign=yelp_api_v3&utm_medium=api_v3_business_search&utm_source=1oh4LhpLWuJDqe_L_DZdyw,93,[],newamerican,RNqUyblZzXvg0a2fBjJQQg
Blu Restaurant & Bar,42.353012,-71.063359,FALSE,2111,Boston,MA,$$$,3.5,https://www.yelp.com/biz/blu-restaurant-and-bar-boston?adjust_creative=1oh4LhpLWuJDqe_L_DZdyw&utm_campaign=yelp_api_v3&utm_medium=api_v3_business_search&utm_source=1oh4LhpLWuJDqe_L_DZdyw,226,['pickup'],"newamerican,seafood",KwL8wWNuUHoplvn8ff97bg
Grotto,42.35986076,-71.06328974,FALSE,2114,Boston,MA,$$$,4,https://www.yelp.com/biz/grotto-boston?adjust_creative=1oh4LhpLWuJDqe_L_DZdyw&utm_campaign=yelp_api_v3&utm_medium=api_v3_business_search&utm_source=1oh4LhpLWuJDqe_L_DZdyw,751,[],italian,J1uidHIL7nE_noUuvFXj0A
No. 9 Park,42.35762024,-71.06278992,FALSE,2108,Boston,MA,$$$$,4,https://www.yelp.com/biz/no-9-park-boston?adjust_creative=1oh4LhpLWuJDqe_L_DZdyw&utm_campaign=yelp_api_v3&utm_medium=api_v3_business_search&utm_source=1oh4LhpLWuJDqe_L_DZdyw,605,[],"french,italian",uYqizPy4eUSpwOha0RkVPg
Scollay Square,42.3581238,-71.0625665,FALSE,2108,Boston,MA,$$,3.5,https://www.yelp.com/biz/scollay-square-boston?adjust_creative=1oh4LhpLWuJDqe_L_DZdyw&utm_campaign=yelp_api_v3&utm_medium=api_v3_business_search&utm_source=1oh4LhpLWuJDqe_L_DZdyw,526,"['delivery', 'pickup']","seafood,tradamerican,cocktailbars",RQUZgVKcgenO-FjTg0j80A
Black Seed Cafe & Grill,42.35595906,-71.06231859,FALSE,2111,Boston,MA,$,3.5,https://www.yelp.com/biz/black-seed-cafe-and-grill-boston-2?adjust_creative=1oh4LhpLWuJDqe_L_DZdyw&utm_campaign=yelp_api_v3&utm_medium=api_v3_business_search&utm_source=1oh4LhpLWuJDqe_L_DZdyw,221,['pickup'],"mideastern,halal,falafel",jhFi0oxdyiyCYK7i-CW59A
Pita,42.33975,-71.06499,FALSE,2118,Boston,MA,$,4,https://www.yelp.com/biz/pita-boston-2?adjust_creative=1oh4LhpLWuJDqe_L_DZdyw&utm_campaign=yelp_api_v3&utm_medium=api_v3_business_search&utm_source=1oh4LhpLWuJDqe_L_DZdyw,205,"['delivery', 'pickup']","mediterranean,mideastern,moroccan",llMSRtQledMr2T9Qbm9VIQ
49 Social,42.35487,-71.06184,FALSE,2111,Boston,MA,$$$,3.5,https://www.yelp.com/biz/49-social-boston?adjust_creative=1oh4LhpLWuJDqe_L_DZdyw&utm_campaign=yelp_api_v3&utm_medium=api_v3_business_search&utm_source=1oh4LhpLWuJDqe_L_DZdyw,208,[],newamerican,tyVAy-kkpui3p7zxxZok7g
Mooo Restaurant,42.35830149,-71.06198115,FALSE,2108,Boston,MA,$$$$,4,https://www.yelp.com/biz/mooo-restaurant-boston?adjust_creative=1oh4LhpLWuJDqe_L_DZdyw&utm_campaign=yelp_api_v3&utm_medium=api_v3_business_search&utm_source=1oh4LhpLWuJDqe_L_DZdyw,777,[],"steak,wine_bars,breakfast_brunch",fEKzWC1sbfZSElp46FoNag
Carrie Nation Restaurant & Cocktail Club,42.35846,-71.061772,FALSE,2108,Boston,MA,$$,3.5,https://www.yelp.com/biz/carrie-nation-restaurant-and-cocktail-club-boston?adjust_creative=1oh4LhpLWuJDqe_L_DZdyw&utm_campaign=yelp_api_v3&utm_medium=api_v3_business_search&utm_source=1oh4LhpLWuJDqe_L_DZdyw,292,[],"tradamerican,cocktailbars,salad",mTyK9-_6CYY6XYAG56c68Q
Silvertone,42.3571471,-71.0608731,FALSE,2108,Boston,MA,$$,4,https://www.yelp.com/biz/silvertone-boston?adjust_creative=1oh4LhpLWuJDqe_L_DZdyw&utm_campaign=yelp_api_v3&utm_medium=api_v3_business_search&utm_source=1oh4LhpLWuJDqe_L_DZdyw,819,[],"tradamerican,cocktailbars,sandwiches",_RWkck7niE8VJG3zLXK2ig
Bubor Cha Cha,42.351277,-71.0608755,FALSE,2111,Boston,MA,$$,3,https://www.yelp.com/biz/bubor-cha-cha-boston-2?adjust_creative=1oh4LhpLWuJDqe_L_DZdyw&utm_campaign=yelp_api_v3&utm_medium=api_v3_business_search&utm_source=1oh4LhpLWuJDqe_L_DZdyw,307,[],"dimsum,seafood,cantonese",2bncbx08BFs_IO6H-yWBxw
Beantown Pub,42.35745148,-71.06091175,FALSE,2108,Boston,MA,$$,3,https://www.yelp.com/biz/beantown-pub-boston?adjust_creative=1oh4LhpLWuJDqe_L_DZdyw&utm_campaign=yelp_api_v3&utm_medium=api_v3_business_search&utm_source=1oh4LhpLWuJDqe_L_DZdyw,568,[],"pubs,tradamerican,breakfast_brunch",V8_e5MRjfexH4WFBqjDWCg
China Pearl Restaurant,42.35113,-71.06077,FALSE,2111,Boston,MA,$$,3,https://www.yelp.com/biz/china-pearl-restaurant-boston?adjust_creative=1oh4LhpLWuJDqe_L_DZdyw&utm_campaign=yelp_api_v3&utm_medium=api_v3_business_search&utm_source=1oh4LhpLWuJDqe_L_DZdyw,501,['delivery'],"dimsum,seafood,cantonese",4mClpg19Ntiw1s75kF19Bg
99 Restaurants,42.39401,-71.08388,FALSE,2145,Somerville,MA,$$,3,https://www.yelp.com/biz/99-restaurants-somerville-2?adjust_creative=1oh4LhpLWuJDqe_L_DZdyw&utm_campaign=yelp_api_v3&utm_medium=api_v3_business_search&utm_source=1oh4LhpLWuJDqe_L_DZdyw,76,[],"tradamerican,pubs",VlXOIzTFaEwF--oPFzfDkA
Shabu-Zen,42.35081749,-71.06061666,FALSE,2111,Boston,MA,$$,4,https://www.yelp.com/biz/shabu-zen-boston?adjust_creative=1oh4LhpLWuJDqe_L_DZdyw&utm_campaign=yelp_api_v3&utm_medium=api_v3_business_search&utm_source=1oh4LhpLWuJDqe_L_DZdyw,829,[],"hotpot,diyfood,fondue",hHVq3NS0ZW9G-ZcLurvUJQ
Jade Garden,42.3507521,-71.06061356,FALSE,2111,Boston,MA,$$,3.5,https://www.yelp.com/biz/jade-garden-boston?adjust_creative=1oh4LhpLWuJDqe_L_DZdyw&utm_campaign=yelp_api_v3&utm_medium=api_v3_business_search&utm_source=1oh4LhpLWuJDqe_L_DZdyw,189,[],"chinese,seafood,chicken_wings",ZJw7_sCOfaUmib1Q0vBAZA
Marliave,42.35701407,-71.06030625,FALSE,2108,Boston,MA,$$$,4,https://www.yelp.com/biz/marliave-boston?adjust_creative=1oh4LhpLWuJDqe_L_DZdyw&utm_campaign=yelp_api_v3&utm_medium=api_v3_business_search&utm_source=1oh4LhpLWuJDqe_L_DZdyw,1165,[],"french,italian,cocktailbars",9m678PeuzwYamIf6sysUHg
New Jumbo Seafood Restaurant,42.35095,-71.06019,FALSE,2111,Boston,MA,$$,3.5,https://www.yelp.com/biz/new-jumbo-seafood-restaurant-boston?adjust_creative=1oh4LhpLWuJDqe_L_DZdyw&utm_campaign=yelp_api_v3&utm_medium=api_v3_business_search&utm_source=1oh4LhpLWuJDqe_L_DZdyw,315,"['pickup', 'delivery']","seafood,chinese",DImi8qeCP-OUaLA8L2QR6A
Il Casale,42.39742889,-71.17565621,FALSE,2478,Belmont,MA,$$$,3.5,https://www.yelp.com/biz/il-casale-belmont?adjust_creative=1oh4LhpLWuJDqe_L_DZdyw&utm_campaign=yelp_api_v3&utm_medium=api_v3_business_search&utm_source=1oh4LhpLWuJDqe_L_DZdyw,271,[],italian,qbeheL7TS1oJMlUnJo1aPQ
Ruth's Chris Steak House,42.358141,-71.059337,FALSE,2108,Boston,MA,$$$$,4,https://www.yelp.com/biz/ruths-chris-steak-house-boston-2?adjust_creative=1oh4LhpLWuJDqe_L_DZdyw&utm_campaign=yelp_api_v3&utm_medium=api_v3_business_search&utm_source=1oh4LhpLWuJDqe_L_DZdyw,736,[],steak,_VEQpntwiMLUbNPLvxvwzA
Tangierino,42.3737909,-71.06264345,FALSE,2129,Charlestown,MA,$$$,3.5,https://www.yelp.com/biz/tangierino-charlestown?adjust_creative=1oh4LhpLWuJDqe_L_DZdyw&utm_campaign=yelp_api_v3&utm_medium=api_v3_business_search&utm_source=1oh4LhpLWuJDqe_L_DZdyw,554,[],"moroccan,french,lounges",UGJpzdTghcvMekA1ML0-kA
Figs by Todd English,42.3736834,-71.062382,FALSE,2129,Charlestown,MA,$$,3.5,https://www.yelp.com/biz/figs-by-todd-english-charlestown?adjust_creative=1oh4LhpLWuJDqe_L_DZdyw&utm_campaign=yelp_api_v3&utm_medium=api_v3_business_search&utm_source=1oh4LhpLWuJDqe_L_DZdyw,353,"['pickup', 'delivery', 'restaurant_reservation']","pizza,italian,tradamerican",meznC0oLcwFAeD_3AIyLRw
Outback Steakhouse,42.39539677,-71.08076892,FALSE,2145,Somerville,MA,$$,2.5,https://www.yelp.com/biz/outback-steakhouse-somerville?adjust_creative=1oh4LhpLWuJDqe_L_DZdyw&utm_campaign=yelp_api_v3&utm_medium=api_v3_business_search&utm_source=1oh4LhpLWuJDqe_L_DZdyw,190,[],steak,E6nIsqfg-1Qsp94wkDHzsg
The Bell In Hand,42.36157608,-71.05706787,FALSE,2108,Boston,MA,$$,3.5,https://www.yelp.com/biz/the-bell-in-hand-boston?adjust_creative=1oh4LhpLWuJDqe_L_DZdyw&utm_campaign=yelp_api_v3&utm_medium=api_v3_business_search&utm_source=1oh4LhpLWuJDqe_L_DZdyw,751,[],"lounges,pubs,musicvenues",uCJqYrBSITSrJBHyMPznwg
Southern Kin Cookhouse,33.655179,-117.998058,FALSE,2145,Somerville,MA,$$,4,https://www.yelp.com/biz/southern-kin-cookhouse-somerville?adjust_creative=1oh4LhpLWuJDqe_L_DZdyw&utm_campaign=yelp_api_v3&utm_medium=api_v3_business_search&utm_source=1oh4LhpLWuJDqe_L_DZdyw,738,[],"southern,cocktailbars",PMnU-trprMtR9p3V_9uXLw
Union Oyster House,42.36126,-71.05688,FALSE,2108,Boston,MA,$$,3.5,https://www.yelp.com/biz/union-oyster-house-boston?adjust_creative=1oh4LhpLWuJDqe_L_DZdyw&utm_campaign=yelp_api_v3&utm_medium=api_v3_business_search&utm_source=1oh4LhpLWuJDqe_L_DZdyw,2321,[],"seafood,bars",Ruq91rmQNweZ78TzKylQMg
Boloco,42.3543117,-71.0563778,FALSE,2110,Boston,MA,$,4,https://www.yelp.com/biz/boloco-boston-49?adjust_creative=1oh4LhpLWuJDqe_L_DZdyw&utm_campaign=yelp_api_v3&utm_medium=api_v3_business_search&utm_source=1oh4LhpLWuJDqe_L_DZdyw,114,"['pickup', 'delivery']",newamerican,_nPHDeWqacE5BVbGvRgIrg
Papagayo,42.39597882,-71.08092003,FALSE,2145,Somerville,MA,$$,2.5,https://www.yelp.com/biz/papagayo-somerville-3?adjust_creative=1oh4LhpLWuJDqe_L_DZdyw&utm_campaign=yelp_api_v3&utm_medium=api_v3_business_search&utm_source=1oh4LhpLWuJDqe_L_DZdyw,332,"['pickup', 'delivery']","mexican,bars",tqq3nQ9Gg0sNNrlndZlSHw
Top Mix Bar & Kitchen,42.32374,-71.06808,FALSE,2119,Boston,MA,$$,4.5,https://www.yelp.com/biz/top-mix-bar-and-kitchen-boston?adjust_creative=1oh4LhpLWuJDqe_L_DZdyw&utm_campaign=yelp_api_v3&utm_medium=api_v3_business_search&utm_source=1oh4LhpLWuJDqe_L_DZdyw,37,[],"cocktailbars,newamerican",l6Ye6vPB6ZPZbxVxMMgvPQ
Earls Kitchen + Bar,42.395802,-71.080043,FALSE,2145,Somerville,MA,$$,3,https://www.yelp.com/biz/earls-kitchen-bar-somerville-4?adjust_creative=1oh4LhpLWuJDqe_L_DZdyw&utm_campaign=yelp_api_v3&utm_medium=api_v3_business_search&utm_source=1oh4LhpLWuJDqe_L_DZdyw,860,[],"newamerican,cocktailbars",sYhfhua7GWiGLQkIUP_TWQ
River Bar,42.39568215,-71.0794331,FALSE,2145,Somerville,MA,$$,3,https://www.yelp.com/biz/river-bar-somerville-2?adjust_creative=1oh4LhpLWuJDqe_L_DZdyw&utm_campaign=yelp_api_v3&utm_medium=api_v3_business_search&utm_source=1oh4LhpLWuJDqe_L_DZdyw,227,[],"cocktailbars,gastropubs,newamerican",YwtjSs7ul_6RX1WnWglxIA
Anthem Kitchen and Bar,42.35976302,-71.05561229,FALSE,2109,Boston,MA,$$,3.5,https://www.yelp.com/biz/anthem-kitchen-and-bar-boston?adjust_creative=1oh4LhpLWuJDqe_L_DZdyw&utm_campaign=yelp_api_v3&utm_medium=api_v3_business_search&utm_source=1oh4LhpLWuJDqe_L_DZdyw,430,[],"newamerican,bars",RF2YhEH__pDNKAhMwZmCUA
McCormick & Schmick's Seafood & Steaks,42.3604507,-71.0557034,FALSE,2109,Boston,MA,$$,2.5,https://www.yelp.com/biz/mccormick-and-schmicks-seafood-and-steaks-boston-2?adjust_creative=1oh4LhpLWuJDqe_L_DZdyw&utm_campaign=yelp_api_v3&utm_medium=api_v3_business_search&utm_source=1oh4LhpLWuJDqe_L_DZdyw,359,[],"seafood,tradamerican,steak",qpg8rxHXMDl8FKLxdxdl3A
Neptune Oyster,42.36327118,-71.0560576,FALSE,2113,Boston,MA,$$$,4.5,https://www.yelp.com/biz/neptune-oyster-boston?adjust_creative=1oh4LhpLWuJDqe_L_DZdyw&utm_campaign=yelp_api_v3&utm_medium=api_v3_business_search&utm_source=1oh4LhpLWuJDqe_L_DZdyw,4389,[],"seafood,bars",y2w6rFaO0XEiG5mFfOsiFA
Moonshine 152,42.34133,-71.0569151,FALSE,2127,Boston,MA,$$,4.5,https://www.yelp.com/biz/moonshine-152-boston?adjust_creative=1oh4LhpLWuJDqe_L_DZdyw&utm_campaign=yelp_api_v3&utm_medium=api_v3_business_search&utm_source=1oh4LhpLWuJDqe_L_DZdyw,281,['delivery'],"newamerican,asianfusion",1C32E52HmhRC3GNwkX2nZg
Antico Forno,42.363801,-71.0556657,FALSE,2113,Boston,MA,$$,3.5,https://www.yelp.com/biz/antico-forno-boston-4?adjust_creative=1oh4LhpLWuJDqe_L_DZdyw&utm_campaign=yelp_api_v3&utm_medium=api_v3_business_search&utm_source=1oh4LhpLWuJDqe_L_DZdyw,847,"['pickup', 'restaurant_reservation']","italian,pizza",tW09hLpf18PYJxNAvNoCqA
L'osteria,42.36424148,-71.0556154,FALSE,2113,Boston,MA,$$,3.5,https://www.yelp.com/biz/l-osteria-boston?adjust_creative=1oh4LhpLWuJDqe_L_DZdyw&utm_campaign=yelp_api_v3&utm_medium=api_v3_business_search&utm_source=1oh4LhpLWuJDqe_L_DZdyw,271,['delivery'],"italian,coffee",JdVlUaXM9aZQ68tjgonszw
Mother Anna's Restaurant,42.36262049,-71.05563808,FALSE,2113,Boston,MA,$$,3.5,https://www.yelp.com/biz/mother-annas-restaurant-boston?adjust_creative=1oh4LhpLWuJDqe_L_DZdyw&utm_campaign=yelp_api_v3&utm_medium=api_v3_business_search&utm_source=1oh4LhpLWuJDqe_L_DZdyw,289,[],italian,wdKi_CGVXIgdah5kaUsZKA
BOND Restaurant and Lounge,42.35664,-71.05428,FALSE,2110,Boston,MA,$$$,3,https://www.yelp.com/biz/bond-restaurant-and-lounge-boston-2?adjust_creative=1oh4LhpLWuJDqe_L_DZdyw&utm_campaign=yelp_api_v3&utm_medium=api_v3_business_search&utm_source=1oh4LhpLWuJDqe_L_DZdyw,214,[],"lounges,newamerican",P1LZAzIiVCd0AuJ3rmjDMQ
Loconte's Italian Cuisine,42.36468,-71.05566,FALSE,2113,Boston,MA,$$,3.5,https://www.yelp.com/biz/locontes-italian-cuisine-boston?adjust_creative=1oh4LhpLWuJDqe_L_DZdyw&utm_campaign=yelp_api_v3&utm_medium=api_v3_business_search&utm_source=1oh4LhpLWuJDqe_L_DZdyw,274,"['pickup', 'delivery']","italian,wine_bars,seafood",J4UsOYwRprbJXIVB_NcldQ
Sabatino's Italian Kitchen,42.34885,-71.14043,FALSE,2135,Brighton,MA,$,3.5,https://www.yelp.com/biz/sabatinos-italian-kitchen-brighton-2?adjust_creative=1oh4LhpLWuJDqe_L_DZdyw&utm_campaign=yelp_api_v3&utm_medium=api_v3_business_search&utm_source=1oh4LhpLWuJDqe_L_DZdyw,190,"['pickup', 'delivery']","italian,pizza,sandwiches",lX2o7nBmXkTJiojIqVO6PQ
Bamboo Thai Restaurant,42.343273,-71.142808,FALSE,2135,Brighton,MA,$$,4,https://www.yelp.com/biz/bamboo-thai-restaurant-brighton?adjust_creative=1oh4LhpLWuJDqe_L_DZdyw&utm_campaign=yelp_api_v3&utm_medium=api_v3_business_search&utm_source=1oh4LhpLWuJDqe_L_DZdyw,351,"['pickup', 'delivery']","thai,bars,salad",wOw3Hb1ImlNBc0-eI13Dhw
Stockyard Restaurant,42.357783,-71.1486165,FALSE,2135,Brighton,MA,$$$,4,https://www.yelp.com/biz/stockyard-restaurant-brighton-3?adjust_creative=1oh4LhpLWuJDqe_L_DZdyw&utm_campaign=yelp_api_v3&utm_medium=api_v3_business_search&utm_source=1oh4LhpLWuJDqe_L_DZdyw,262,[],"bars,seafood,steak",B0ZTztL-vjgm2Tc1ZxSbHg
Lone Star Taco Bar,42.353849,-71.137078,FALSE,2134,Allston,MA,$$,4,https://www.yelp.com/biz/lone-star-taco-bar-allston?adjust_creative=1oh4LhpLWuJDqe_L_DZdyw&utm_campaign=yelp_api_v3&utm_medium=api_v3_business_search&utm_source=1oh4LhpLWuJDqe_L_DZdyw,469,[],"bars,tacos",1exJzD7WPZzJ72JRG1CGWg
Barcelona Wine Bar,42.3387152,-71.1389332,FALSE,2446,Brookline,MA,$$$,4.5,https://www.yelp.com/biz/barcelona-wine-bar-brookline-3?adjust_creative=1oh4LhpLWuJDqe_L_DZdyw&utm_campaign=yelp_api_v3&utm_medium=api_v3_business_search&utm_source=1oh4LhpLWuJDqe_L_DZdyw,1145,[],"tapasmallplates,spanish,wine_bars",ck8Id2EaJ20Alj0N8UMvBQ
Lulu's Allston,42.3550647,-71.1341649,FALSE,2134,Boston,MA,$$,4,https://www.yelp.com/biz/lulus-allston-boston-4?adjust_creative=1oh4LhpLWuJDqe_L_DZdyw&utm_campaign=yelp_api_v3&utm_medium=api_v3_business_search&utm_source=1oh4LhpLWuJDqe_L_DZdyw,395,"['pickup', 'delivery']","newamerican,sportsbars",FioFvBhgVPV2dZW3mxjxQQ
The Publick House,42.33941303,-71.13670365,FALSE,2445,Brookline,MA,$$,4,https://www.yelp.com/biz/the-publick-house-brookline?adjust_creative=1oh4LhpLWuJDqe_L_DZdyw&utm_campaign=yelp_api_v3&utm_medium=api_v3_business_search&utm_source=1oh4LhpLWuJDqe_L_DZdyw,1132,[],"pubs,tradamerican,belgian",rK-fgI2_-x0T4lxwF9L4Ww
Loui Loui,42.3528499,-71.13262,FALSE,2134,Allston,MA,$$,4,https://www.yelp.com/biz/loui-loui-allston-3?adjust_creative=1oh4LhpLWuJDqe_L_DZdyw&utm_campaign=yelp_api_v3&utm_medium=api_v3_business_search&utm_source=1oh4LhpLWuJDqe_L_DZdyw,146,"['pickup', 'delivery']","southern,cajun,seafood",c3V_1Dakp0UspkZayn0AjQ
The Abbey,42.33863,-71.13683,FALSE,2445,Brookline,MA,$$,4,https://www.yelp.com/biz/the-abbey-brookline?adjust_creative=1oh4LhpLWuJDqe_L_DZdyw&utm_campaign=yelp_api_v3&utm_medium=api_v3_business_search&utm_source=1oh4LhpLWuJDqe_L_DZdyw,429,[],newamerican,knIq-vPHJGFC0UzAtIFESw
Oppa Sushi,42.350904,-71.1313152,FALSE,2134,Boston,MA,$$,4.5,https://www.yelp.com/biz/oppa-sushi-boston-2?adjust_creative=1oh4LhpLWuJDqe_L_DZdyw&utm_campaign=yelp_api_v3&utm_medium=api_v3_business_search&utm_source=1oh4LhpLWuJDqe_L_DZdyw,208,"['pickup', 'delivery']","sushi,japanese,seafood",vVF-M6yj3uUljHFZ_WXeiw
The Washington Square Tavern,42.339123,-71.135212,FALSE,2445,Brookline,MA,$$,4,https://www.yelp.com/biz/the-washington-square-tavern-brookline?adjust_creative=1oh4LhpLWuJDqe_L_DZdyw&utm_campaign=yelp_api_v3&utm_medium=api_v3_business_search&utm_source=1oh4LhpLWuJDqe_L_DZdyw,286,[],"bars,tradamerican",_vsgjhqs356JqeAPsP6XOQ
Le's Vietnamese Resturant,42.35313,-71.1313799,FALSE,2134,Allston,MA,$,4,https://www.yelp.com/biz/les-vietnamese-resturant-allston-2?adjust_creative=1oh4LhpLWuJDqe_L_DZdyw&utm_campaign=yelp_api_v3&utm_medium=api_v3_business_search&utm_source=1oh4LhpLWuJDqe_L_DZdyw,627,"['pickup', 'delivery']","vietnamese,seafood,noodles",zmZ3HkVCeZPBefJJxzdJ7A
Carlo's Cucina Italiana,42.3531,-71.13116,FALSE,2134,Allston,MA,$$,4.5,https://www.yelp.com/biz/carlos-cucina-italiana-allston-2?adjust_creative=1oh4LhpLWuJDqe_L_DZdyw&utm_campaign=yelp_api_v3&utm_medium=api_v3_business_search&utm_source=1oh4LhpLWuJDqe_L_DZdyw,615,[],"italian,desserts,salad",aqNd1SaHTNGATIOy24sYxQ
Sakanaya,42.35258178,-71.13035917,FALSE,2134,Boston,MA,$$,4,https://www.yelp.com/biz/sakanaya-boston?adjust_creative=1oh4LhpLWuJDqe_L_DZdyw&utm_campaign=yelp_api_v3&utm_medium=api_v3_business_search&utm_source=1oh4LhpLWuJDqe_L_DZdyw,128,[],"seafood,japanese,seafoodmarkets",QXdEeuL4cA_KcGMrh5o5rA
Ariana Restaurant,42.36273733,-71.13787853,FALSE,2135,Brighton,MA,$$,4.5,https://www.yelp.com/biz/ariana-restaurant-brighton?adjust_creative=1oh4LhpLWuJDqe_L_DZdyw&utm_campaign=yelp_api_v3&utm_medium=api_v3_business_search&utm_source=1oh4LhpLWuJDqe_L_DZdyw,372,"['pickup', 'delivery']",afghani,#NAME?
Shiraz Persian Cuisine,42.368427,-71.157173,FALSE,2472,Watertown,MA,$$,3.5,https://www.yelp.com/biz/shiraz-persian-cuisine-watertown-2?adjust_creative=1oh4LhpLWuJDqe_L_DZdyw&utm_campaign=yelp_api_v3&utm_medium=api_v3_business_search&utm_source=1oh4LhpLWuJDqe_L_DZdyw,126,"['pickup', 'delivery']","mideastern,persian",Vco3twYE0sD4kb0O1_PLoQ
Coolidge Corner Clubhouse,42.3432707,-71.1227847,FALSE,2446,Brookline,MA,$$,3,https://www.yelp.com/biz/coolidge-corner-clubhouse-brookline?adjust_creative=1oh4LhpLWuJDqe_L_DZdyw&utm_campaign=yelp_api_v3&utm_medium=api_v3_business_search&utm_source=1oh4LhpLWuJDqe_L_DZdyw,405,"['pickup', 'delivery']","sportsbars,tradamerican",435AFqUlpfkv2MvSHw6S8A
Victoria Seafood Restaurant,42.3520916,-71.1218514,FALSE,2215,Boston,MA,$$,3.5,https://www.yelp.com/biz/victoria-seafood-restaurant-boston?adjust_creative=1oh4LhpLWuJDqe_L_DZdyw&utm_campaign=yelp_api_v3&utm_medium=api_v3_business_search&utm_source=1oh4LhpLWuJDqe_L_DZdyw,280,[],"chinese,seafood",9Jiax4wZ94ZmMcMzmpdvJA
Upper Crust Pizzeria,42.34270282,-71.1222742,FALSE,2446,Brookline,MA,$$,3,https://www.yelp.com/biz/upper-crust-pizzeria-brookline?adjust_creative=1oh4LhpLWuJDqe_L_DZdyw&utm_campaign=yelp_api_v3&utm_medium=api_v3_business_search&utm_source=1oh4LhpLWuJDqe_L_DZdyw,323,"['pickup', 'delivery']","pizza,italian",0f7KLXeVKJ1dZg5OqIGtPw
Hops N Scotch,42.34227992,-71.12069206,FALSE,2446,Brookline,MA,$$,3.5,https://www.yelp.com/biz/hops-n-scotch-brookline?adjust_creative=1oh4LhpLWuJDqe_L_DZdyw&utm_campaign=yelp_api_v3&utm_medium=api_v3_business_search&utm_source=1oh4LhpLWuJDqe_L_DZdyw,402,[],"bars,newamerican",djb7jPPMwVOBfCE5K7Ilog
Henrietta's Table,42.3722373,-71.12330392,FALSE,2138,Cambridge,MA,$$$,3.5,https://www.yelp.com/biz/henriettas-table-cambridge?adjust_creative=1oh4LhpLWuJDqe_L_DZdyw&utm_campaign=yelp_api_v3&utm_medium=api_v3_business_search&utm_source=1oh4LhpLWuJDqe_L_DZdyw,746,[],"newamerican,breakfast_brunch",1iY5q6spBS_DNWyemY829A
Basta Pasta Trattoria,42.36463,-71.11323,FALSE,2139,Cambridge,MA,$$,4,https://www.yelp.com/biz/basta-pasta-trattoria-cambridge-2?adjust_creative=1oh4LhpLWuJDqe_L_DZdyw&utm_campaign=yelp_api_v3&utm_medium=api_v3_business_search&utm_source=1oh4LhpLWuJDqe_L_DZdyw,421,['delivery'],"italian,pizza",psmBt1lYNosvPbzlSbmJFA
Harvest,42.37368421,-71.1220837,FALSE,2138,Cambridge,MA,$$$,3.5,https://www.yelp.com/biz/harvest-cambridge?adjust_creative=1oh4LhpLWuJDqe_L_DZdyw&utm_campaign=yelp_api_v3&utm_medium=api_v3_business_search&utm_source=1oh4LhpLWuJDqe_L_DZdyw,476,[],"newamerican,seafood,desserts",uSM_sCp22BJWeatTDl6ODA
The Sinclair,42.37404247,-71.12069863,FALSE,2138,Cambridge,MA,$$,3.5,https://www.yelp.com/biz/the-sinclair-cambridge?adjust_creative=1oh4LhpLWuJDqe_L_DZdyw&utm_campaign=yelp_api_v3&utm_medium=api_v3_business_search&utm_source=1oh4LhpLWuJDqe_L_DZdyw,388,[],"musicvenues,newamerican,tradamerican",aVS9DWS7GUcF6oExGmYnlg
Border Caf̩,42.37427875,-71.12029782,FALSE,2138,Cambridge,MA,$$,4,https://www.yelp.com/biz/border-cafe-cambridge?adjust_creative=1oh4LhpLWuJDqe_L_DZdyw&utm_campaign=yelp_api_v3&utm_medium=api_v3_business_search&utm_source=1oh4LhpLWuJDqe_L_DZdyw,1757,[],"tex-mex,cajun,mexican",pvlM--HZY1a8SqMXiwEz1A
Grafton Street,42.37223899,-71.11591813,FALSE,2138,Cambridge,MA,$$,3.5,https://www.yelp.com/biz/grafton-street-cambridge?adjust_creative=1oh4LhpLWuJDqe_L_DZdyw&utm_campaign=yelp_api_v3&utm_medium=api_v3_business_search&utm_source=1oh4LhpLWuJDqe_L_DZdyw,764,[],"tradamerican,pubs",yoem-KW_Jln0LqsdLwLeUQ
The Cellar,42.36947,-71.1109199,FALSE,2138,Cambridge,MA,$$,4,https://www.yelp.com/biz/the-cellar-cambridge?adjust_creative=1oh4LhpLWuJDqe_L_DZdyw&utm_campaign=yelp_api_v3&utm_medium=api_v3_business_search&utm_source=1oh4LhpLWuJDqe_L_DZdyw,256,[],"newamerican,bars",UtS03G9OuSNuEtm-lHcf7w
Moody's Falafel Palace,42.36542526,-71.10574898,FALSE,2139,Cambridge,MA,$,3.5,https://www.yelp.com/biz/moodys-falafel-palace-cambridge?adjust_creative=1oh4LhpLWuJDqe_L_DZdyw&utm_campaign=yelp_api_v3&utm_medium=api_v3_business_search&utm_source=1oh4LhpLWuJDqe_L_DZdyw,531,[],"mideastern,falafel,vegetarian",9qCjkJvgnpzOjKLodDEMxw
Rangzen Tibetan Place,42.364167,-71.102964,FALSE,2139,Cambridge,MA,$$,4,https://www.yelp.com/biz/rangzen-tibetan-place-cambridge-2?adjust_creative=1oh4LhpLWuJDqe_L_DZdyw&utm_campaign=yelp_api_v3&utm_medium=api_v3_business_search&utm_source=1oh4LhpLWuJDqe_L_DZdyw,371,"['pickup', 'delivery']","asianfusion,bars",HxegWRjhi7m73mXRI8qQIg
ZuZu,42.363774,-71.10144,FALSE,2139,Cambridge,MA,$$,3.5,https://www.yelp.com/biz/zuzu-cambridge?adjust_creative=1oh4LhpLWuJDqe_L_DZdyw&utm_campaign=yelp_api_v3&utm_medium=api_v3_business_search&utm_source=1oh4LhpLWuJDqe_L_DZdyw,300,"['delivery', 'restaurant_reservation']","mediterranean,breakfast_brunch,newamerican",GLP0_Rs2y4Q0Gxk7r1dddQ
City Streets Restaurant,42.386419,-71.20389,FALSE,2452,Waltham,MA,$$,4,https://www.yelp.com/biz/city-streets-restaurant-waltham-2?adjust_creative=1oh4LhpLWuJDqe_L_DZdyw&utm_campaign=yelp_api_v3&utm_medium=api_v3_business_search&utm_source=1oh4LhpLWuJDqe_L_DZdyw,70,['delivery'],"sportsbars,tradamerican",PsUYM5VJ4rSKCsOYyrWxbQ
The Farm Grill & Rotisserie,42.31575,-71.20979,FALSE,2459,Newton,MA,$$,4,https://www.yelp.com/biz/the-farm-grill-and-rotisserie-newton?adjust_creative=1oh4LhpLWuJDqe_L_DZdyw&utm_campaign=yelp_api_v3&utm_medium=api_v3_business_search&utm_source=1oh4LhpLWuJDqe_L_DZdyw,239,[],"greek,mediterranean",vcqSLjbljnkTqXKOgi9q1Q
Comella's,42.3492024,-71.2265968,FALSE,2465,Newton,MA,$$,3.5,https://www.yelp.com/biz/comellas-newton?adjust_creative=1oh4LhpLWuJDqe_L_DZdyw&utm_campaign=yelp_api_v3&utm_medium=api_v3_business_search&utm_source=1oh4LhpLWuJDqe_L_DZdyw,120,[],"italian,chicken_wings,pizza",jXPU_jCpEQ3Ni8MHqRs1Wg
Delfino Restaurant,42.28696,-71.12953,FALSE,2131,Roslindale,MA,$$,4,https://www.yelp.com/biz/delfino-restaurant-roslindale?adjust_creative=1oh4LhpLWuJDqe_L_DZdyw&utm_campaign=yelp_api_v3&utm_medium=api_v3_business_search&utm_source=1oh4LhpLWuJDqe_L_DZdyw,243,[],italian,5oUOPgwX1fyfCpoy2oqKLA
Tempo,42.36795807,-71.23695374,FALSE,2453,Waltham,MA,$$$,4,https://www.yelp.com/biz/tempo-waltham?adjust_creative=1oh4LhpLWuJDqe_L_DZdyw&utm_campaign=yelp_api_v3&utm_medium=api_v3_business_search&utm_source=1oh4LhpLWuJDqe_L_DZdyw,372,[],"bars,tradamerican",gvdQwBeV6bOCOvTKxVmTcg
Bison County BBQ Bar & Grille,42.37142,-71.23719,FALSE,2453,Waltham,MA,$$,3.5,https://www.yelp.com/biz/bison-county-bbq-bar-and-grille-waltham-2?adjust_creative=1oh4LhpLWuJDqe_L_DZdyw&utm_campaign=yelp_api_v3&utm_medium=api_v3_business_search&utm_source=1oh4LhpLWuJDqe_L_DZdyw,335,[],"bbq,sportsbars,chicken_wings",X0-4QinxqDweGOWMKsb9bA
Margaritas Mexican Restaurant,42.3725457,-71.2368527,FALSE,2453,Waltham,MA,$$,2.5,https://www.yelp.com/biz/margaritas-mexican-restaurant-waltham?adjust_creative=1oh4LhpLWuJDqe_L_DZdyw&utm_campaign=yelp_api_v3&utm_medium=api_v3_business_search&utm_source=1oh4LhpLWuJDqe_L_DZdyw,386,"['delivery', 'pickup']","mexican,bars",JHYOusJBXe4wW33oJoEtzw
Not Your Average Joe's,42.41596073,-71.15381756,FALSE,2476,Arlington,MA,$$,3.5,https://www.yelp.com/biz/not-your-average-joes-arlington?adjust_creative=1oh4LhpLWuJDqe_L_DZdyw&utm_campaign=yelp_api_v3&utm_medium=api_v3_business_search&utm_source=1oh4LhpLWuJDqe_L_DZdyw,214,['delivery'],newamerican,mlUbNTKVrPc4UbesjY7mbQ
Pasha,42.4161071,-71.1543642,FALSE,2476,Arlington,MA,$$,3.5,https://www.yelp.com/biz/pasha-arlington?adjust_creative=1oh4LhpLWuJDqe_L_DZdyw&utm_campaign=yelp_api_v3&utm_medium=api_v3_business_search&utm_source=1oh4LhpLWuJDqe_L_DZdyw,176,[],"turkish,mediterranean",HAF1_8TLXzea-2aXidpKNQ
Biagio Ristorante & Bar,42.3738699,-71.23708,FALSE,2453,Waltham,MA,$$$,3,https://www.yelp.com/biz/biagio-ristorante-and-bar-waltham?adjust_creative=1oh4LhpLWuJDqe_L_DZdyw&utm_campaign=yelp_api_v3&utm_medium=api_v3_business_search&utm_source=1oh4LhpLWuJDqe_L_DZdyw,189,[],"italian,bars",daDNnPM1VGJzymFw90-CDA
Tryst,42.41623077,-71.15530184,FALSE,2476,Arlington,MA,$$,3.5,https://www.yelp.com/biz/tryst-arlington?adjust_creative=1oh4LhpLWuJDqe_L_DZdyw&utm_campaign=yelp_api_v3&utm_medium=api_v3_business_search&utm_source=1oh4LhpLWuJDqe_L_DZdyw,275,[],newamerican,8XH25e94Tf8UNzSr-OWHeQ
Applebee's Grill + Bar,42.326073,-71.063107,FALSE,2125,Dorchester,MA,$$,2.5,https://www.yelp.com/biz/applebees-grill-bar-dorchester?adjust_creative=1oh4LhpLWuJDqe_L_DZdyw&utm_campaign=yelp_api_v3&utm_medium=api_v3_business_search&utm_source=1oh4LhpLWuJDqe_L_DZdyw,132,[],"sportsbars,burgers,tradamerican",eqr5t-Py3oOhIuukz27dEA
Scutra Restaurant,42.41902225,-71.15778543,FALSE,2474,Arlington,MA,$$$,3.5,https://www.yelp.com/biz/scutra-restaurant-arlington?adjust_creative=1oh4LhpLWuJDqe_L_DZdyw&utm_campaign=yelp_api_v3&utm_medium=api_v3_business_search&utm_source=1oh4LhpLWuJDqe_L_DZdyw,178,['restaurant_reservation'],"modern_european,newamerican,seafood",TbidSY0CNknTW1WEqK33WA
Demo's,42.381458,-71.236906,FALSE,2452,Waltham,MA,$,3,https://www.yelp.com/biz/demos-waltham?adjust_creative=1oh4LhpLWuJDqe_L_DZdyw&utm_campaign=yelp_api_v3&utm_medium=api_v3_business_search&utm_source=1oh4LhpLWuJDqe_L_DZdyw,73,['delivery'],"greek,mediterranean",Of0s9Bp9sxRIrfS6_WsuXw
Chateau Restaurant,42.3783249,-71.239395,FALSE,2451,Waltham,MA,$$,3,https://www.yelp.com/biz/chateau-restaurant-waltham?adjust_creative=1oh4LhpLWuJDqe_L_DZdyw&utm_campaign=yelp_api_v3&utm_medium=api_v3_business_search&utm_source=1oh4LhpLWuJDqe_L_DZdyw,244,"['delivery', 'pickup']",italian,IGbKO5xKMZrTsPtmDYaLwQ
Sofia Italian Steakhouse,42.270801,-71.17173,FALSE,2132,West Roxbury,MA,$$$,4,https://www.yelp.com/biz/sofia-italian-steakhouse-west-roxbury-2?adjust_creative=1oh4LhpLWuJDqe_L_DZdyw&utm_campaign=yelp_api_v3&utm_medium=api_v3_business_search&utm_source=1oh4LhpLWuJDqe_L_DZdyw,234,[],"steak,italian",nlZghMJ6hcu_b7gzwzYdxQ
Fuji Steak House,42.2819103,-71.2359151,FALSE,2492,Needham,MA,$$,3,https://www.yelp.com/biz/fuji-steak-house-needham?adjust_creative=1oh4LhpLWuJDqe_L_DZdyw&utm_campaign=yelp_api_v3&utm_medium=api_v3_business_search&utm_source=1oh4LhpLWuJDqe_L_DZdyw,125,"['delivery', 'pickup']","japanese,steak,sushi",frTp4FF8-pxlAUREcMpStA
Dedham Square Coffeehouse,42.2481431,-71.1726205,FALSE,2026,Dedham,MA,$,3.5,https://www.yelp.com/biz/dedham-square-coffeehouse-dedham?adjust_creative=1oh4LhpLWuJDqe_L_DZdyw&utm_campaign=yelp_api_v3&utm_medium=api_v3_business_search&utm_source=1oh4LhpLWuJDqe_L_DZdyw,55,[],"coffee,bars,internetcafe",zSP2I7sQR3rWQUdo4LBNVQ
Rincon Caribeno Restaurant,42.25561336,-71.12090506,FALSE,2136,Hyde Park,MA,$$,3.5,https://www.yelp.com/biz/rincon-caribeno-restaurant-hyde-park?adjust_creative=1oh4LhpLWuJDqe_L_DZdyw&utm_campaign=yelp_api_v3&utm_medium=api_v3_business_search&utm_source=1oh4LhpLWuJDqe_L_DZdyw,57,"['pickup', 'delivery']","cocktailbars,dominican,latin",l7iATT41a30rJDp5U_EmQg
Fairmount Grille,42.2545537,-71.1202539,FALSE,2136,Hyde Park,MA,$$,4,https://www.yelp.com/biz/the-fairmount-grille-hyde-park?adjust_creative=1oh4LhpLWuJDqe_L_DZdyw&utm_campaign=yelp_api_v3&utm_medium=api_v3_business_search&utm_source=1oh4LhpLWuJDqe_L_DZdyw,153,"['pickup', 'delivery']","newamerican,tradamerican,bars",OwpCK2Krj4qxvsA5672HOQ
Amrheins,42.34191,-71.05522,FALSE,2127,Boston,MA,$$,3.5,https://www.yelp.com/biz/amrheins-boston-2?adjust_creative=1oh4LhpLWuJDqe_L_DZdyw&utm_campaign=yelp_api_v3&utm_medium=api_v3_business_search&utm_source=1oh4LhpLWuJDqe_L_DZdyw,415,[],"newamerican,bars",loRoCo53b30zgHZ_mIMatQ
Nebo Cucina & Enoteca,42.35383875,-71.05299219,FALSE,2210,Boston,MA,$$$,3.5,https://www.yelp.com/biz/nebo-cucina-and-enoteca-boston?adjust_creative=1oh4LhpLWuJDqe_L_DZdyw&utm_campaign=yelp_api_v3&utm_medium=api_v3_business_search&utm_source=1oh4LhpLWuJDqe_L_DZdyw,339,[],"italian,gluten_free,pizza",UHSgwkHN_4IxeHa3pcb5Pg
Durgin-Park Restaurant,42.3602285,-71.0547722,FALSE,2109,Boston,MA,$$,3,https://www.yelp.com/biz/durgin-park-restaurant-boston-2?adjust_creative=1oh4LhpLWuJDqe_L_DZdyw&utm_campaign=yelp_api_v3&utm_medium=api_v3_business_search&utm_source=1oh4LhpLWuJDqe_L_DZdyw,527,[],"seafood,steak,bars",OkWWg21Tln2nd7wBgURtJQ
Bostonia Public House,42.359213,-71.054296,FALSE,2109,Boston,MA,$$,4,https://www.yelp.com/biz/bostonia-public-house-boston-4?adjust_creative=1oh4LhpLWuJDqe_L_DZdyw&utm_campaign=yelp_api_v3&utm_medium=api_v3_business_search&utm_source=1oh4LhpLWuJDqe_L_DZdyw,1043,[],"newamerican,musicvenues,cocktailbars",xZ22_0eJOgaiKqIhoSHrPw
Moulton's Seafood Restaurant,42.4164188,-71.1186594,FALSE,2155,Medford,MA,$$,4,https://www.yelp.com/biz/moultons-seafood-restaurant-medford?adjust_creative=1oh4LhpLWuJDqe_L_DZdyw&utm_campaign=yelp_api_v3&utm_medium=api_v3_business_search&utm_source=1oh4LhpLWuJDqe_L_DZdyw,117,[],seafood,ttbt7fmqbU4YdT1jPXiBwg
Bacco,42.3641777,-71.05538177,FALSE,2113,Boston,MA,$$,3.5,https://www.yelp.com/biz/bacco-boston?adjust_creative=1oh4LhpLWuJDqe_L_DZdyw&utm_campaign=yelp_api_v3&utm_medium=api_v3_business_search&utm_source=1oh4LhpLWuJDqe_L_DZdyw,298,[],"italian,wine_bars,southern",vQNe7TD_QDpGtGbkaAqi8Q
Ristorante Euno,42.36443329,-71.05535126,FALSE,2113,Boston,MA,$$$,4,https://www.yelp.com/biz/ristorante-euno-boston?adjust_creative=1oh4LhpLWuJDqe_L_DZdyw&utm_campaign=yelp_api_v3&utm_medium=api_v3_business_search&utm_source=1oh4LhpLWuJDqe_L_DZdyw,224,[],"italian,mediterranean,pastashops",Mgkv-Kr_tcANDPYnV4PqQw
Benevento's,42.3642807,-71.05535889,FALSE,2113,Boston,MA,$$,4,https://www.yelp.com/biz/beneventos-boston?adjust_creative=1oh4LhpLWuJDqe_L_DZdyw&utm_campaign=yelp_api_v3&utm_medium=api_v3_business_search&utm_source=1oh4LhpLWuJDqe_L_DZdyw,395,[],"italian,pizza",ndO6w5EoVZI1-e_Adl-ltw
La Galleria 33,42.3646532,-71.05545446,FALSE,2113,Boston,MA,$$,3.5,https://www.yelp.com/biz/la-galleria-33-boston?adjust_creative=1oh4LhpLWuJDqe_L_DZdyw&utm_campaign=yelp_api_v3&utm_medium=api_v3_business_search&utm_source=1oh4LhpLWuJDqe_L_DZdyw,327,[],italian,wVHoVfbaIPvlP1sCzOuaZg
Al Dente Restaurant,42.36422,-71.05536,FALSE,2113,Boston,MA,$$,4,https://www.yelp.com/biz/al-dente-restaurant-boston?adjust_creative=1oh4LhpLWuJDqe_L_DZdyw&utm_campaign=yelp_api_v3&utm_medium=api_v3_business_search&utm_source=1oh4LhpLWuJDqe_L_DZdyw,954,"['delivery', 'pickup']","italian,bakeries",pOEHpNa4B6oesmr5ltiv8A
Ristorante Fiore,42.3635822,-71.0549324,FALSE,2113,Boston,MA,$$$,3.5,https://www.yelp.com/biz/ristorante-fiore-boston-2?adjust_creative=1oh4LhpLWuJDqe_L_DZdyw&utm_campaign=yelp_api_v3&utm_medium=api_v3_business_search&utm_source=1oh4LhpLWuJDqe_L_DZdyw,554,[],"italian,wine_bars",PBt_sana68L9ZjgQzeJ7zw
Pagliucas,42.36374283,-71.05496216,FALSE,2113,Boston,MA,$$,3,https://www.yelp.com/biz/pagliucas-boston-2?adjust_creative=1oh4LhpLWuJDqe_L_DZdyw&utm_campaign=yelp_api_v3&utm_medium=api_v3_business_search&utm_source=1oh4LhpLWuJDqe_L_DZdyw,285,[],italian,pW-9K9V5KQWxd-teAtcjlQ
Bricco,42.36309,-71.05495,FALSE,2113,Boston,MA,$$$,4,https://www.yelp.com/biz/bricco-boston-6?adjust_creative=1oh4LhpLWuJDqe_L_DZdyw&utm_campaign=yelp_api_v3&utm_medium=api_v3_business_search&utm_source=1oh4LhpLWuJDqe_L_DZdyw,812,[],wine_bars,55PGG2U1z-q7Z694F-B-_w
Bistro 5,42.4213865,-71.1324138,FALSE,2155,Medford,MA,$$$,4.5,https://www.yelp.com/biz/bistro-5-medford?adjust_creative=1oh4LhpLWuJDqe_L_DZdyw&utm_campaign=yelp_api_v3&utm_medium=api_v3_business_search&utm_source=1oh4LhpLWuJDqe_L_DZdyw,225,[],"italian,modern_european",6t1Y9dPhbGLEpGEecV9wdA
Salvatore's Restaurant,42.4187248,-71.1115534,FALSE,2155,Medford,MA,$$,3,https://www.yelp.com/biz/salvatores-restaurant-medford?adjust_creative=1oh4LhpLWuJDqe_L_DZdyw&utm_campaign=yelp_api_v3&utm_medium=api_v3_business_search&utm_source=1oh4LhpLWuJDqe_L_DZdyw,209,[],"italian,bars",whrxNVNwY3BLb2SYPWsX0A
Vintage Restaurant and Lounge,42.3577,-71.05302,FALSE,2110,Boston,MA,$$,3.5,https://www.yelp.com/biz/vintage-restaurant-and-lounge-boston?adjust_creative=1oh4LhpLWuJDqe_L_DZdyw&utm_campaign=yelp_api_v3&utm_medium=api_v3_business_search&utm_source=1oh4LhpLWuJDqe_L_DZdyw,129,['delivery'],"lounges,newamerican",mI7qw74vuPgf4LJWH3M2oA
Finn McCool's Boston,42.3567426,-71.0519535,FALSE,2110,Boston,MA,$$,4,https://www.yelp.com/biz/finn-mccools-boston-boston?adjust_creative=1oh4LhpLWuJDqe_L_DZdyw&utm_campaign=yelp_api_v3&utm_medium=api_v3_business_search&utm_source=1oh4LhpLWuJDqe_L_DZdyw,20,"['delivery', 'pickup']",pubs,PAdsmCb-T8yzrLf137yCVg
Bastille Kitchen,42.349462,-71.0501609,FALSE,2210,Boston,MA,$$$,3.5,https://www.yelp.com/biz/bastille-kitchen-boston?adjust_creative=1oh4LhpLWuJDqe_L_DZdyw&utm_campaign=yelp_api_v3&utm_medium=api_v3_business_search&utm_source=1oh4LhpLWuJDqe_L_DZdyw,244,[],"bars,french",tFjWlJCDpANBRAPSMc5Cew
Granary Tavern,42.3587303,-71.052597,FALSE,2109,Boston,MA,$$,3.5,https://www.yelp.com/biz/granary-tavern-boston?adjust_creative=1oh4LhpLWuJDqe_L_DZdyw&utm_campaign=yelp_api_v3&utm_medium=api_v3_business_search&utm_source=1oh4LhpLWuJDqe_L_DZdyw,561,[],"newamerican,pubs",CWqL2TEq_V9tipCj-X-GoQ
Meritage Restaurant,42.3562283,-71.0505545,FALSE,2110,Boston,MA,$$$$,4,https://www.yelp.com/biz/meritage-restaurant-boston-2?adjust_creative=1oh4LhpLWuJDqe_L_DZdyw&utm_campaign=yelp_api_v3&utm_medium=api_v3_business_search&utm_source=1oh4LhpLWuJDqe_L_DZdyw,293,[],"newamerican,seafood,wine_bars",6H313b3O6gTULpR7fV2FsQ
Sportello,42.35067,-71.04846,FALSE,2210,Boston,MA,$$$,4,https://www.yelp.com/biz/sportello-boston?adjust_creative=1oh4LhpLWuJDqe_L_DZdyw&utm_campaign=yelp_api_v3&utm_medium=api_v3_business_search&utm_source=1oh4LhpLWuJDqe_L_DZdyw,765,"['delivery', 'pickup']",italian,a1MOjLJXAIVmYZ2cG5gKCw
Villa Francesca,42.3634449,-71.0546418,FALSE,2109,Boston,MA,$$$,3,https://www.yelp.com/biz/villa-francesca-boston?adjust_creative=1oh4LhpLWuJDqe_L_DZdyw&utm_campaign=yelp_api_v3&utm_medium=api_v3_business_search&utm_source=1oh4LhpLWuJDqe_L_DZdyw,286,['delivery'],"italian,wine_bars,seafood",vxkOVmhReRa4XYfAT1hMxA
Barking Crab,42.35344721,-71.04860042,FALSE,2210,Boston,MA,$$,3,https://www.yelp.com/biz/barking-crab-boston-2?adjust_creative=1oh4LhpLWuJDqe_L_DZdyw&utm_campaign=yelp_api_v3&utm_medium=api_v3_business_search&utm_source=1oh4LhpLWuJDqe_L_DZdyw,1891,['delivery'],"seafood,beerbar",oz882XuZCxajKo64Opgq_Q
Legal Sea Foods,42.35955304,-71.05101742,FALSE,2109,Boston,MA,$$$,3.5,https://www.yelp.com/biz/legal-sea-foods-boston-38?adjust_creative=1oh4LhpLWuJDqe_L_DZdyw&utm_campaign=yelp_api_v3&utm_medium=api_v3_business_search&utm_source=1oh4LhpLWuJDqe_L_DZdyw,1142,[],"seafood,bars,salad",VDmV3tPEQqFxzqQJRJazNw
Vinoteca di Monica,42.3633988,-71.0543352,FALSE,2109,Boston,MA,$$$,3.5,https://www.yelp.com/biz/vinoteca-di-monica-boston-2?adjust_creative=1oh4LhpLWuJDqe_L_DZdyw&utm_campaign=yelp_api_v3&utm_medium=api_v3_business_search&utm_source=1oh4LhpLWuJDqe_L_DZdyw,333,[],"italian,wine_bars,seafood",Hnx34LxtfW4XV0gZ18zMBg
Limoncello Ristorante,42.36333288,-71.0539075,FALSE,2113,Boston,MA,$$,4,https://www.yelp.com/biz/limoncello-ristorante-boston-2?adjust_creative=1oh4LhpLWuJDqe_L_DZdyw&utm_campaign=yelp_api_v3&utm_medium=api_v3_business_search&utm_source=1oh4LhpLWuJDqe_L_DZdyw,568,[],"italian,wine_bars",LGNpVs8cRBllNVml8wI0Vg
The Daily Catch,42.35414355,-71.0480838,FALSE,2210,Boston,MA,$$$,3,https://www.yelp.com/biz/the-daily-catch-boston-4?adjust_creative=1oh4LhpLWuJDqe_L_DZdyw&utm_campaign=yelp_api_v3&utm_medium=api_v3_business_search&utm_source=1oh4LhpLWuJDqe_L_DZdyw,389,"['delivery', 'pickup']","seafood,italian,cocktailbars",cCAAA6871M0K_EHZidkKmQ
Ristorante Saraceno,42.36398,-71.05455,FALSE,2113,Boston,MA,$$,3.5,https://www.yelp.com/biz/ristorante-saraceno-boston?adjust_creative=1oh4LhpLWuJDqe_L_DZdyw&utm_campaign=yelp_api_v3&utm_medium=api_v3_business_search&utm_source=1oh4LhpLWuJDqe_L_DZdyw,420,[],"italian,seafood,desserts",JzW-uJwi7cGd0c_VS8wvBQ
Carmelina's,42.36388,-71.05415,FALSE,2113,Boston,MA,$$,4.5,https://www.yelp.com/biz/carmelinas-boston-2?adjust_creative=1oh4LhpLWuJDqe_L_DZdyw&utm_campaign=yelp_api_v3&utm_medium=api_v3_business_search&utm_source=1oh4LhpLWuJDqe_L_DZdyw,1223,['restaurant_reservation'],italian,kP1b-7BO_VhWk_0tvuA_tw
The Daily Catch,42.36406,-71.05397,FALSE,2113,Boston,MA,$$,4,https://www.yelp.com/biz/the-daily-catch-boston?adjust_creative=1oh4LhpLWuJDqe_L_DZdyw&utm_campaign=yelp_api_v3&utm_medium=api_v3_business_search&utm_source=1oh4LhpLWuJDqe_L_DZdyw,1451,[],"italian,seafood,coffee",uXOVFQraz1va1TrtgiqYTg
The Reef,42.3597711,-71.0507385,FALSE,2110,Boston,MA,$$,3,https://www.yelp.com/biz/the-reef-boston?adjust_creative=1oh4LhpLWuJDqe_L_DZdyw&utm_campaign=yelp_api_v3&utm_medium=api_v3_business_search&utm_source=1oh4LhpLWuJDqe_L_DZdyw,26,[],"bars,tradamerican",Pm-PU6CldkzBm4ci4r66LQ
Artu,42.3641,-71.05374,FALSE,2113,Boston,MA,$$,3.5,https://www.yelp.com/biz/artu-boston-2?adjust_creative=1oh4LhpLWuJDqe_L_DZdyw&utm_campaign=yelp_api_v3&utm_medium=api_v3_business_search&utm_source=1oh4LhpLWuJDqe_L_DZdyw,331,"['delivery', 'pickup']","italian,diners,wine_bars",m5jCNOs6QG75lkzLhMMryA
Mamma Maria,42.364081,-71.053303,FALSE,2113,Boston,MA,$$$,4,https://www.yelp.com/biz/mamma-maria-boston?adjust_creative=1oh4LhpLWuJDqe_L_DZdyw&utm_campaign=yelp_api_v3&utm_medium=api_v3_business_search&utm_source=1oh4LhpLWuJDqe_L_DZdyw,554,[],italian,uBXOc3uxpCSmd22P6LOeew
North Street Grille,42.36339879,-71.05255628,FALSE,2113,Boston,MA,$$,4,https://www.yelp.com/biz/north-street-grille-boston-2?adjust_creative=1oh4LhpLWuJDqe_L_DZdyw&utm_campaign=yelp_api_v3&utm_medium=api_v3_business_search&utm_source=1oh4LhpLWuJDqe_L_DZdyw,750,[],"breakfast_brunch,newamerican",M0Z57IL0dlzpU6QCez0wGA
Panza,42.3646699,-71.05382,FALSE,2113,Boston,MA,$$,4,https://www.yelp.com/biz/panza-boston?adjust_creative=1oh4LhpLWuJDqe_L_DZdyw&utm_campaign=yelp_api_v3&utm_medium=api_v3_business_search&utm_source=1oh4LhpLWuJDqe_L_DZdyw,1161,[],"italian,wine_bars,salad",T4nEmSQNeTKnNgcHpnvH0A
Chart House,42.36016583,-71.0494595,FALSE,2110,Boston,MA,$$$,3,https://www.yelp.com/biz/chart-house-boston?adjust_creative=1oh4LhpLWuJDqe_L_DZdyw&utm_campaign=yelp_api_v3&utm_medium=api_v3_business_search&utm_source=1oh4LhpLWuJDqe_L_DZdyw,572,"['delivery', 'pickup']","seafood,steak,venues",OFHWBXs5-UyEYf0-MrFDUw
Giacomo's Ristorante,42.36458,-71.05344,FALSE,2113,Boston,MA,$$,4,https://www.yelp.com/biz/giacomos-ristorante-boston?adjust_creative=1oh4LhpLWuJDqe_L_DZdyw&utm_campaign=yelp_api_v3&utm_medium=api_v3_business_search&utm_source=1oh4LhpLWuJDqe_L_DZdyw,3090,[],"italian,wine_bars,seafood",2u_w3rthRzR2uEihW5BC4A
Joe's American Bar & Grill,42.3623159,-71.0508594,FALSE,2110,Boston,MA,$$,3,https://www.yelp.com/biz/joes-american-bar-and-grill-boston?adjust_creative=1oh4LhpLWuJDqe_L_DZdyw&utm_campaign=yelp_api_v3&utm_medium=api_v3_business_search&utm_source=1oh4LhpLWuJDqe_L_DZdyw,464,[],"burgers,tradamerican,cocktailbars",SvMVqEWYJXPOr6vJlRYnrg
Cantina Italiana,42.36504,-71.0534799,FALSE,2113,Boston,MA,$$,4,https://www.yelp.com/biz/cantina-italiana-boston?adjust_creative=1oh4LhpLWuJDqe_L_DZdyw&utm_campaign=yelp_api_v3&utm_medium=api_v3_business_search&utm_source=1oh4LhpLWuJDqe_L_DZdyw,439,[],italian,ZZoP396jgh6zK7PdZbHfPg
Strega,42.3650488,-71.0531742,FALSE,2113,Boston,MA,$$$,3.5,https://www.yelp.com/biz/strega-boston?adjust_creative=1oh4LhpLWuJDqe_L_DZdyw&utm_campaign=yelp_api_v3&utm_medium=api_v3_business_search&utm_source=1oh4LhpLWuJDqe_L_DZdyw,455,[],italian,boK3cyDPLmwNUV97doMCNA
La Summa,42.36468,-71.05255,FALSE,2113,Boston,MA,$$,4,https://www.yelp.com/biz/la-summa-boston?adjust_creative=1oh4LhpLWuJDqe_L_DZdyw&utm_campaign=yelp_api_v3&utm_medium=api_v3_business_search&utm_source=1oh4LhpLWuJDqe_L_DZdyw,298,[],"italian,desserts,salad",paMwLc8H3QUaGTkBteUT9g
Strega Waterfront,42.353216,-71.045152,FALSE,2210,Boston,MA,$$$,3.5,https://www.yelp.com/biz/strega-waterfront-boston?adjust_creative=1oh4LhpLWuJDqe_L_DZdyw&utm_campaign=yelp_api_v3&utm_medium=api_v3_business_search&utm_source=1oh4LhpLWuJDqe_L_DZdyw,505,[],italian,4jkGZhbMPUg3Talazishtg
MJ O'Connor's,42.34642,-71.04266,FALSE,2210,Boston,MA,$$,3,https://www.yelp.com/biz/mj-o-connors-boston-2?adjust_creative=1oh4LhpLWuJDqe_L_DZdyw&utm_campaign=yelp_api_v3&utm_medium=api_v3_business_search&utm_source=1oh4LhpLWuJDqe_L_DZdyw,192,[],"tradamerican,cocktailbars",3IRA159ZbwTAEL3WqcZZiA
Legal Test Kitchen,42.348585,-71.039075,FALSE,2210,Boston,MA,$$,3.5,https://www.yelp.com/biz/legal-test-kitchen-boston?adjust_creative=1oh4LhpLWuJDqe_L_DZdyw&utm_campaign=yelp_api_v3&utm_medium=api_v3_business_search&utm_source=1oh4LhpLWuJDqe_L_DZdyw,738,[],"newamerican,seafood,cocktailbars",UYEP_G4fYVxasowdgd5Icg
75 on Liberty Wharf,42.34910511,-71.03889484,FALSE,2210,Boston,MA,$$,3,https://www.yelp.com/biz/75-on-liberty-wharf-boston?adjust_creative=1oh4LhpLWuJDqe_L_DZdyw&utm_campaign=yelp_api_v3&utm_medium=api_v3_business_search&utm_source=1oh4LhpLWuJDqe_L_DZdyw,220,[],"newamerican,desserts,breakfast_brunch",25sny_QPRSFNxCPqu1oRqw
Del Frisco's Double Eagle Steakhouse,42.34890887,-71.03849452,FALSE,2210,Boston,MA,$$$$,3.5,https://www.yelp.com/biz/del-friscos-double-eagle-steakhouse-boston-4?adjust_creative=1oh4LhpLWuJDqe_L_DZdyw&utm_campaign=yelp_api_v3&utm_medium=api_v3_business_search&utm_source=1oh4LhpLWuJDqe_L_DZdyw,859,[],"seafood,steak,tradamerican",T1wflZohQRZVb9SKQapfFA
No Name Restaurant,42.3502037,-71.0384582,FALSE,2210,South Boston,MA,$$,2.5,https://www.yelp.com/biz/no-name-restaurant-south-boston-2?adjust_creative=1oh4LhpLWuJDqe_L_DZdyw&utm_campaign=yelp_api_v3&utm_medium=api_v3_business_search&utm_source=1oh4LhpLWuJDqe_L_DZdyw,894,[],seafood,REmBxSRBi_FDgwsTnjl3hA
Legal Harborside,42.34865,-71.03779,FALSE,2210,Boston,MA,$$$,3.5,https://www.yelp.com/biz/legal-harborside-boston-6?adjust_creative=1oh4LhpLWuJDqe_L_DZdyw&utm_campaign=yelp_api_v3&utm_medium=api_v3_business_search&utm_source=1oh4LhpLWuJDqe_L_DZdyw,1184,[],"seafood,tradamerican,wine_bars",et8Pwzjy2vjRhETAgEZ1Lg
Yankee Lobster,42.34792158,-71.03598794,FALSE,2210,Boston,MA,$$,4,https://www.yelp.com/biz/yankee-lobster-boston?adjust_creative=1oh4LhpLWuJDqe_L_DZdyw&utm_campaign=yelp_api_v3&utm_medium=api_v3_business_search&utm_source=1oh4LhpLWuJDqe_L_DZdyw,1443,[],seafood,h4Un3Tw0yKn7uCLseO7Bvg
D'Parma Restaurant,42.36935,-71.04032,FALSE,2128,East Boston,MA,$$,4,https://www.yelp.com/biz/d-parma-restaurant-east-boston?adjust_creative=1oh4LhpLWuJDqe_L_DZdyw&utm_campaign=yelp_api_v3&utm_medium=api_v3_business_search&utm_source=1oh4LhpLWuJDqe_L_DZdyw,90,[],italian,lLPXuKq9jRU06teLRtUjpA
Italian Express Pizzeria,42.36727388,-71.03573816,FALSE,2128,Boston,MA,$$,4.5,https://www.yelp.com/biz/italian-express-pizzeria-boston-2?adjust_creative=1oh4LhpLWuJDqe_L_DZdyw&utm_campaign=yelp_api_v3&utm_medium=api_v3_business_search&utm_source=1oh4LhpLWuJDqe_L_DZdyw,363,[],"italian,pizza",zvKfCAOBzVcxc1HLpoIY8A
KO Pies At the Shipyard,42.36407564,-71.03162312,FALSE,2128,Boston,MA,$$,4.5,https://www.yelp.com/biz/ko-pies-at-the-shipyard-boston?adjust_creative=1oh4LhpLWuJDqe_L_DZdyw&utm_campaign=yelp_api_v3&utm_medium=api_v3_business_search&utm_source=1oh4LhpLWuJDqe_L_DZdyw,265,[],"australian,bars,seafood",wuiDoeKWClLrr2g2LSXA8w
Mi Pueblito Restaurant,42.37904,-71.03989,FALSE,2128,Boston,MA,$$,4.5,https://www.yelp.com/biz/mi-pueblito-restaurant-boston?adjust_creative=1oh4LhpLWuJDqe_L_DZdyw&utm_campaign=yelp_api_v3&utm_medium=api_v3_business_search&utm_source=1oh4LhpLWuJDqe_L_DZdyw,158,[],"mexican,salvadoran,seafood",bgV_tFbmVDKBxZni2my7XA
Rino's Place,42.3780632,-71.0329114,FALSE,2128,Boston,MA,$$,4,https://www.yelp.com/biz/rinos-place-boston?adjust_creative=1oh4LhpLWuJDqe_L_DZdyw&utm_campaign=yelp_api_v3&utm_medium=api_v3_business_search&utm_source=1oh4LhpLWuJDqe_L_DZdyw,743,[],italian,OP0xCQM6ih4VEhl2t39Z-g
Ciao! Pizza & Pasta,42.3892518,-71.0409076,FALSE,2150,Chelsea,MA,$$,5,https://www.yelp.com/biz/ciao-pizza-and-pasta-chelsea-2?adjust_creative=1oh4LhpLWuJDqe_L_DZdyw&utm_campaign=yelp_api_v3&utm_medium=api_v3_business_search&utm_source=1oh4LhpLWuJDqe_L_DZdyw,490,[],"italian,pizza",yQL8SrSETbbCI1U5esVJQw
Legal Sea Foods,42.361696,-71.017407,FALSE,2128,Boston,MA,$$,3.5,https://www.yelp.com/biz/legal-sea-foods-boston-49?adjust_creative=1oh4LhpLWuJDqe_L_DZdyw&utm_campaign=yelp_api_v3&utm_medium=api_v3_business_search&utm_source=1oh4LhpLWuJDqe_L_DZdyw,359,[],"seafood,breakfast_brunch,sandwiches",sUmsVV0RPP3Wx6MbWZKyIw
Chelsea Station Restaurant Bar & Lounge,42.39462379,-71.03921503,FALSE,2150,Chelsea,MA,$$,4,https://www.yelp.com/biz/chelsea-station-restaurant-bar-and-lounge-chelsea?adjust_creative=1oh4LhpLWuJDqe_L_DZdyw&utm_campaign=yelp_api_v3&utm_medium=api_v3_business_search&utm_source=1oh4LhpLWuJDqe_L_DZdyw,181,[],"lounges,newamerican,cocktailbars",kF_0OkW9sTQQNIwQfbDE3Q
Abbondanza Ristorante,42.4075712,-71.0619517,FALSE,2149,Everett,MA,$$,4,https://www.yelp.com/biz/abbondanza-ristorante-everett?adjust_creative=1oh4LhpLWuJDqe_L_DZdyw&utm_campaign=yelp_api_v3&utm_medium=api_v3_business_search&utm_source=1oh4LhpLWuJDqe_L_DZdyw,63,[],italian,m2CNfH6HiwqgAW8JiFbqZQ
Mandarin Buffet,42.4046421,-71.0219972,FALSE,2150,Chelsea,MA,$$,3,https://www.yelp.com/biz/mandarin-buffet-chelsea?adjust_creative=1oh4LhpLWuJDqe_L_DZdyw&utm_campaign=yelp_api_v3&utm_medium=api_v3_business_search&utm_source=1oh4LhpLWuJDqe_L_DZdyw,66,[],"buffets,chinese,seafood",tox6xX92Lws6IwFvVD8puQ
El Potro Mexican Grill,42.4193088,-71.0799949,FALSE,2148,Malden,MA,$$,4.5,https://www.yelp.com/biz/el-potro-mexican-grill-malden?adjust_creative=1oh4LhpLWuJDqe_L_DZdyw&utm_campaign=yelp_api_v3&utm_medium=api_v3_business_search&utm_source=1oh4LhpLWuJDqe_L_DZdyw,197,[],"mexican,bars",BJXadWOLyGXzly7Iqx4W_g
Oliveira's Restaurant,42.4157,-71.04738,FALSE,2149,Everett,MA,$$,3.5,https://www.yelp.com/biz/oliveiras-restaurant-everett?adjust_creative=1oh4LhpLWuJDqe_L_DZdyw&utm_campaign=yelp_api_v3&utm_medium=api_v3_business_search&utm_source=1oh4LhpLWuJDqe_L_DZdyw,115,"['delivery', 'pickup']","brazilian,steak,lounges",lIDR_8ZuG7WvAaXaavreGg
Nappi's Restaurant,42.4219787,-71.094927,FALSE,2155,Medford,MA,$$,4,https://www.yelp.com/biz/nappis-restaurant-medford?adjust_creative=1oh4LhpLWuJDqe_L_DZdyw&utm_campaign=yelp_api_v3&utm_medium=api_v3_business_search&utm_source=1oh4LhpLWuJDqe_L_DZdyw,147,[],italian,eWzMs5B_Eht6i5zF0CrXFg
Shanghai Moon,42.42290931,-71.09169479,FALSE,2155,Medford,MA,$$,3.5,https://www.yelp.com/biz/shanghai-moon-medford?adjust_creative=1oh4LhpLWuJDqe_L_DZdyw&utm_campaign=yelp_api_v3&utm_medium=api_v3_business_search&utm_source=1oh4LhpLWuJDqe_L_DZdyw,62,"['pickup', 'delivery']","japanese,sportsbars,chinese",3bkcl_O4A8jgvZNjf8GptQ
Sichuan Taste,42.42436,-71.0680299,FALSE,2184,Malden,MA,$$,3.5,https://www.yelp.com/biz/sichuan-taste-malden?adjust_creative=1oh4LhpLWuJDqe_L_DZdyw&utm_campaign=yelp_api_v3&utm_medium=api_v3_business_search&utm_source=1oh4LhpLWuJDqe_L_DZdyw,92,"['pickup', 'delivery']","seafood,szechuan,desserts",4DJj4NtOHcnojgav5OyaOg
Tavolo,42.28393668,-71.06466614,FALSE,2124,Dorchester,MA,$$,3.5,https://www.yelp.com/biz/tavolo-dorchester?adjust_creative=1oh4LhpLWuJDqe_L_DZdyw&utm_campaign=yelp_api_v3&utm_medium=api_v3_business_search&utm_source=1oh4LhpLWuJDqe_L_DZdyw,184,[],"italian,pizza,pastashops",NsE1oIckP5CcmezF2UzMag
Prime Pizza,42.270172,-71.065872,FALSE,2186,Milton,MA,$$,3,https://www.yelp.com/biz/prime-pizza-milton?adjust_creative=1oh4LhpLWuJDqe_L_DZdyw&utm_campaign=yelp_api_v3&utm_medium=api_v3_business_search&utm_source=1oh4LhpLWuJDqe_L_DZdyw,155,['pickup'],"newamerican,seafood,tradamerican",7hJ2pItzMoAJQKdvbAmdpw
The Blarney Stone,42.2993708,-71.0606029,FALSE,2122,Dorchester,MA,$$,4,https://www.yelp.com/biz/the-blarney-stone-dorchester?adjust_creative=1oh4LhpLWuJDqe_L_DZdyw&utm_campaign=yelp_api_v3&utm_medium=api_v3_business_search&utm_source=1oh4LhpLWuJDqe_L_DZdyw,195,[],"bars,newamerican",CRV5pbiOC_EXCqQrRZ98BA
Burke's Seafood,42.27398,-71.024434,FALSE,2171,Quincy,MA,$$,4.5,https://www.yelp.com/biz/burkes-seafood-quincy?adjust_creative=1oh4LhpLWuJDqe_L_DZdyw&utm_campaign=yelp_api_v3&utm_medium=api_v3_business_search&utm_source=1oh4LhpLWuJDqe_L_DZdyw,225,[],"seafood,seafoodmarkets,fishnchips",WGPQZMXwhFPgN6D_fk8t4Q
Abby Park,42.25826669,-71.04036865,FALSE,2186,Milton,MA,$$$,3.5,https://www.yelp.com/biz/abby-park-milton?adjust_creative=1oh4LhpLWuJDqe_L_DZdyw&utm_campaign=yelp_api_v3&utm_medium=api_v3_business_search&utm_source=1oh4LhpLWuJDqe_L_DZdyw,318,[],"newamerican,salad,breakfast_brunch",x2C2q4DtrAWAIS6ZyJZjuA
The Fat Cat,42.24985734,-71.00196183,FALSE,2169,Quincy,MA,$$,4,https://www.yelp.com/biz/the-fat-cat-quincy?adjust_creative=1oh4LhpLWuJDqe_L_DZdyw&utm_campaign=yelp_api_v3&utm_medium=api_v3_business_search&utm_source=1oh4LhpLWuJDqe_L_DZdyw,1392,[],newamerican,zrCMsPgOciEc5wNbCpLI3Q
Cagney's Restaurant & Pub,42.2500489,-70.9942377,FALSE,2169,Quincy,MA,$$,3.5,https://www.yelp.com/biz/cagneys-restaurant-and-pub-quincy?adjust_creative=1oh4LhpLWuJDqe_L_DZdyw&utm_campaign=yelp_api_v3&utm_medium=api_v3_business_search&utm_source=1oh4LhpLWuJDqe_L_DZdyw,143,[],"tradamerican,pubs",6pNibxhQbAqQcEMr2Jy1Ew
Gennaro's Eatery,42.242657,-70.996002,FALSE,2169,Quincy,MA,$$,4,https://www.yelp.com/biz/gennaros-eatery-quincy?adjust_creative=1oh4LhpLWuJDqe_L_DZdyw&utm_campaign=yelp_api_v3&utm_medium=api_v3_business_search&utm_source=1oh4LhpLWuJDqe_L_DZdyw,377,[],italian,4EcQBaxs-yxHRJjogbeFzQ
Webster's Eatery,42.2427805,-70.9956154,FALSE,2169,Quincy,MA,$$,3.5,https://www.yelp.com/biz/websters-eatery-quincy?adjust_creative=1oh4LhpLWuJDqe_L_DZdyw&utm_campaign=yelp_api_v3&utm_medium=api_v3_business_search&utm_source=1oh4LhpLWuJDqe_L_DZdyw,39,[],"mideastern,mediterranean",CmdVh1cYn536aa_1gjABDA
Coop's Bar & Grille,42.2475812,-70.9800441,FALSE,2169,Quincy,MA,$$,4,https://www.yelp.com/biz/coops-bar-and-grille-quincy?adjust_creative=1oh4LhpLWuJDqe_L_DZdyw&utm_campaign=yelp_api_v3&utm_medium=api_v3_business_search&utm_source=1oh4LhpLWuJDqe_L_DZdyw,138,[],"bars,pizza,newamerican",8oofaDz2nL0gzvAXaLbR4w
The Cheesecake Factory,42.21999,-71.022711,FALSE,2184,Braintree,MA,$$,3,https://www.yelp.com/biz/the-cheesecake-factory-braintree?adjust_creative=1oh4LhpLWuJDqe_L_DZdyw&utm_campaign=yelp_api_v3&utm_medium=api_v3_business_search&utm_source=1oh4LhpLWuJDqe_L_DZdyw,358,[],"newamerican,desserts",qEZA-Vx-K3Snyn-tkQ3IJg
Bay Pointe Waterfront Restaurant,42.2467818,-70.976326,FALSE,2169,Quincy,MA,$$,3,https://www.yelp.com/biz/bay-pointe-waterfront-restaurant-quincy?adjust_creative=1oh4LhpLWuJDqe_L_DZdyw&utm_campaign=yelp_api_v3&utm_medium=api_v3_business_search&utm_source=1oh4LhpLWuJDqe_L_DZdyw,243,[],"tradamerican,seafood,newamerican",vPXrpTMN3Z4IjcX4ZbrlJQ
Adriatic,42.37191662,-70.97054712,FALSE,2152,Winthrop,MA,$$,4.5,https://www.yelp.com/biz/adriatic-winthrop?adjust_creative=1oh4LhpLWuJDqe_L_DZdyw&utm_campaign=yelp_api_v3&utm_medium=api_v3_business_search&utm_source=1oh4LhpLWuJDqe_L_DZdyw,14,[],mediterranean,lE9lGJMmsjwW8XgPOV-Wlw
Belle Isle Seafood,42.3826116,-70.9936784,FALSE,2152,Winthrop,MA,$$,3.5,https://www.yelp.com/biz/belle-isle-seafood-winthrop?adjust_creative=1oh4LhpLWuJDqe_L_DZdyw&utm_campaign=yelp_api_v3&utm_medium=api_v3_business_search&utm_source=1oh4LhpLWuJDqe_L_DZdyw,337,[],seafood,tC7u1XLE6kK31L809NfyUQ
La Scala Restaurant,42.19259,-71.06009,FALSE,2368,Randolph,MA,$$,3.5,https://www.yelp.com/biz/la-scala-restaurant-randolph?adjust_creative=1oh4LhpLWuJDqe_L_DZdyw&utm_campaign=yelp_api_v3&utm_medium=api_v3_business_search&utm_source=1oh4LhpLWuJDqe_L_DZdyw,171,[],italian,_S4j-74ZR4MUkWdiMlBoFQ
Volare Restaurant and Bar,42.41021,-71.01247,FALSE,2151,Revere,MA,$$,4,https://www.yelp.com/biz/volare-restaurant-and-bar-revere?adjust_creative=1oh4LhpLWuJDqe_L_DZdyw&utm_campaign=yelp_api_v3&utm_medium=api_v3_business_search&utm_source=1oh4LhpLWuJDqe_L_DZdyw,167,[],"italian,lounges",WLYDPoWGriHWtf4BmRVx2Q
Santorini,42.42219,-70.98503,FALSE,2151,Revere,MA,$$,3,https://www.yelp.com/biz/santorini-revere?adjust_creative=1oh4LhpLWuJDqe_L_DZdyw&utm_campaign=yelp_api_v3&utm_medium=api_v3_business_search&utm_source=1oh4LhpLWuJDqe_L_DZdyw,50,"['delivery', 'pickup']",seafood,vUpbLwBKL1YiOreQ7p6Vfw
The Marina Restaurant & Bar At the Wharf,42.43091,-70.97926,FALSE,2151,Revere,MA,$$,4,https://www.yelp.com/biz/the-marina-restaurant-and-bar-at-the-wharf-revere-2?adjust_creative=1oh4LhpLWuJDqe_L_DZdyw&utm_campaign=yelp_api_v3&utm_medium=api_v3_business_search&utm_source=1oh4LhpLWuJDqe_L_DZdyw,154,[],"seafood,bars,tradamerican",WRv36_xwynru5AFVEyCOkw
Victor's Italian Restaurant,42.44671807,-71.01093516,FALSE,1906,Saugus,MA,$$,4.5,https://www.yelp.com/biz/victors-italian-restaurant-saugus?adjust_creative=1oh4LhpLWuJDqe_L_DZdyw&utm_campaign=yelp_api_v3&utm_medium=api_v3_business_search&utm_source=1oh4LhpLWuJDqe_L_DZdyw,90,[],italian,Z0K_lNlqzz-aUDbvexpD5A
Pho Bistro,42.4262957,-71.0676314,FALSE,2148,Malden,MA,$,3,https://www.yelp.com/biz/pho-bistro-malden?adjust_creative=1oh4LhpLWuJDqe_L_DZdyw&utm_campaign=yelp_api_v3&utm_medium=api_v3_business_search&utm_source=1oh4LhpLWuJDqe_L_DZdyw,219,[],"vietnamese,soup,seafood",h7OHsyPpUFz9V7oiQWKFnQ
Exchange Street Bistro,42.426597,-71.0693916,FALSE,2148,Malden,MA,$$,4,https://www.yelp.com/biz/exchange-street-bistro-malden?adjust_creative=1oh4LhpLWuJDqe_L_DZdyw&utm_campaign=yelp_api_v3&utm_medium=api_v3_business_search&utm_source=1oh4LhpLWuJDqe_L_DZdyw,391,[],"newamerican,breakfast_brunch,lounges",tPY0JQVfAVEvVeDauJKEHg
CAVA,42.23111829,-71.17774993,FALSE,2026,Dedham,MA,$$,4.5,https://www.yelp.com/biz/cava-dedham?adjust_creative=1oh4LhpLWuJDqe_L_DZdyw&utm_campaign=yelp_api_v3&utm_medium=api_v3_business_search&utm_source=1oh4LhpLWuJDqe_L_DZdyw,33,[],mediterranean,qVoaL553iwP7fpt0Xr4Bdg
Vico Ristorante Italiano,42.1933894,-71.1999598,FALSE,2062,Norwood,MA,$$,4.5,https://www.yelp.com/biz/vico-ristorante-italiano-norwood?adjust_creative=1oh4LhpLWuJDqe_L_DZdyw&utm_campaign=yelp_api_v3&utm_medium=api_v3_business_search&utm_source=1oh4LhpLWuJDqe_L_DZdyw,85,[],italian,IFamp2iDylLbgkxN8WaG0A
Hibachi Steak House,42.17024,-71.19483,FALSE,2062,Norwood,MA,$$,3.5,https://www.yelp.com/biz/hibachi-steak-house-norwood?adjust_creative=1oh4LhpLWuJDqe_L_DZdyw&utm_campaign=yelp_api_v3&utm_medium=api_v3_business_search&utm_source=1oh4LhpLWuJDqe_L_DZdyw,79,['pickup'],"steak,japanese",2K1A9fEqmo-N2J6VEBXcDA
Sky,42.16678801,-71.19900982,FALSE,2062,Norwood,MA,$$$,3.5,https://www.yelp.com/biz/sky-norwood?adjust_creative=1oh4LhpLWuJDqe_L_DZdyw&utm_campaign=yelp_api_v3&utm_medium=api_v3_business_search&utm_source=1oh4LhpLWuJDqe_L_DZdyw,174,['pickup'],"newamerican,lounges",luDal00Gw3r-1KjI1454ZA
Not Your Average Joe's,42.1651421,-71.0569395,FALSE,2368,Randolph,MA,$$,3.5,https://www.yelp.com/biz/not-your-average-joes-randolph?adjust_creative=1oh4LhpLWuJDqe_L_DZdyw&utm_campaign=yelp_api_v3&utm_medium=api_v3_business_search&utm_source=1oh4LhpLWuJDqe_L_DZdyw,205,[],newamerican,YJJEptfpcPLsDY3zPCjpLg
Pho 98C,42.1644871,-71.0426179,FALSE,2368,Randolph,MA,$$,4.5,https://www.yelp.com/biz/pho-98-c-randolph-4?adjust_creative=1oh4LhpLWuJDqe_L_DZdyw&utm_campaign=yelp_api_v3&utm_medium=api_v3_business_search&utm_source=1oh4LhpLWuJDqe_L_DZdyw,173,"['delivery', 'pickup']","vietnamese,bars,hotpot",757zI3bNk4CZ9cql3T6rbQ
Amelia's,42.139792,-71.103506,FALSE,2072,Stoughton,MA,$$$,4,https://www.yelp.com/biz/amelias-stoughton-6?adjust_creative=1oh4LhpLWuJDqe_L_DZdyw&utm_campaign=yelp_api_v3&utm_medium=api_v3_business_search&utm_source=1oh4LhpLWuJDqe_L_DZdyw,165,[],"bars,italian",xCKxmjueOoS5NBrOHuJ5Lg
Maria's Pizzeria,42.15114,-71.0088899,FALSE,2343,Holbrook,MA,$,4,https://www.yelp.com/biz/marias-pizzeria-holbrook-2?adjust_creative=1oh4LhpLWuJDqe_L_DZdyw&utm_campaign=yelp_api_v3&utm_medium=api_v3_business_search&utm_source=1oh4LhpLWuJDqe_L_DZdyw,33,[],"pizza,italian,salad",pUyPajqPzuN-hdQXW6T3dg
Captain Marden's Seafoods,42.30195254,-71.28857195,FALSE,2482,Wellesley,MA,$$,3.5,https://www.yelp.com/biz/captain-mardens-seafoods-wellesley?adjust_creative=1oh4LhpLWuJDqe_L_DZdyw&utm_campaign=yelp_api_v3&utm_medium=api_v3_business_search&utm_source=1oh4LhpLWuJDqe_L_DZdyw,190,[],"seafoodmarkets,seafood,breakfast_brunch",YYWfxVRa9v-48Lehza2RYQ
Bocado Tapas Wine Bar,42.295932,-71.295113,FALSE,2482,Wellesley,MA,$$,3.5,https://www.yelp.com/biz/bocado-tapas-wine-bar-wellesley-2?adjust_creative=1oh4LhpLWuJDqe_L_DZdyw&utm_campaign=yelp_api_v3&utm_medium=api_v3_business_search&utm_source=1oh4LhpLWuJDqe_L_DZdyw,147,"['pickup', 'delivery']","tapas,spanish,wine_bars",KjmdwtRacEv1c0_w3Nmsdg