name,latitude,longitude,is_closed,zipcode,city,state,price,rating,url,review_count,transactions,category,id
Middle East Restaurant and Nightclub,42.3637902,-71.1012764,False,02139,Cambridge,MA,$$,3.5,https://www.yelp.com/biz/middle-east-restaurant-and-nightclub-cambridge?adjust_creative=1oh4LhpLWuJDqe_L_DZdyw&utm_campaign=yelp_api_v3&utm_medium=api_v3_business_search&utm_source=1oh4LhpLWuJDqe_L_DZdyw,531,"['delivery', 'pickup']","mideastern,musicvenues,bars",YFkrZhuA1phCiJB1EJV39w
Boston Beer Works,42.3472099,-71.09913,False,02215,Boston,MA,$$,3.5,https://www.yelp.com/biz/boston-beer-works-boston-2?adjust_creative=1oh4LhpLWuJDqe_L_DZdyw&utm_campaign=yelp_api_v3&utm_medium=api_v3_business_search&utm_source=1oh4LhpLWuJDqe_L_DZdyw,691,[],"breweries,tradamerican,beerbar",SNJhevBiD7xFvxiEJywMxw
Craigie On Main,42.3634817952265,-71.0986128859795,False,02139,Cambridge,MA,$$$$,4.0,https://www.yelp.com/biz/craigie-on-main-cambridge?adjust_creative=1oh4LhpLWuJDqe_L_DZdyw&utm_campaign=yelp_api_v3&utm_medium=api_v3_business_search&utm_source=1oh4LhpLWuJDqe_L_DZdyw,1216,[],"newamerican,french,bars",58cDJU4cub1o0o0B4h9GrA
Gyro City,42.3431622796524,-71.0989929288362,False,02215,Boston,MA,$,4.0,https://www.yelp.com/biz/gyro-city-boston?adjust_creative=1oh4LhpLWuJDqe_L_DZdyw&utm_campaign=yelp_api_v3&utm_medium=api_v3_business_search&utm_source=1oh4LhpLWuJDqe_L_DZdyw,283,"['delivery', 'pickup']","greek,mediterranean",KENZN5yZDjVQtKzwJ5gD6Q
Porcinis Italian Restaurant,42.36483,-71.1667,False,02472,Watertown,MA,$$,4.0,https://www.yelp.com/biz/porcinis-italian-restaurant-watertown?adjust_creative=1oh4LhpLWuJDqe_L_DZdyw&utm_campaign=yelp_api_v3&utm_medium=api_v3_business_search&utm_source=1oh4LhpLWuJDqe_L_DZdyw,167,[],"italian,seafood,mediterranean",7200x8GYzQSeBzuiv3_4BA
Eastern Standard Kitchen & Drinks,42.348740324378,-71.0960168391466,False,02215,Boston,MA,$$$,4.0,https://www.yelp.com/biz/eastern-standard-kitchen-and-drinks-boston-3?adjust_creative=1oh4LhpLWuJDqe_L_DZdyw&utm_campaign=yelp_api_v3&utm_medium=api_v3_business_search&utm_source=1oh4LhpLWuJDqe_L_DZdyw,1749,[],"newamerican,lounges,breakfast_brunch",p8ohzzGvGRCHnJKnyO7exA
Cuchi Cuchi,42.36334,-71.09713,False,02139,Cambridge,MA,$$$,4.0,https://www.yelp.com/biz/cuchi-cuchi-cambridge?adjust_creative=1oh4LhpLWuJDqe_L_DZdyw&utm_campaign=yelp_api_v3&utm_medium=api_v3_business_search&utm_source=1oh4LhpLWuJDqe_L_DZdyw,1066,[],"tapasmallplates,wine_bars,cocktailbars",C7FKNwSUlbUinT9cRSLXHA
Island Creek Oyster Bar,42.348682243174,-71.095118452365,False,02215,Boston,MA,$$$,4.5,https://www.yelp.com/biz/island-creek-oyster-bar-boston?adjust_creative=1oh4LhpLWuJDqe_L_DZdyw&utm_campaign=yelp_api_v3&utm_medium=api_v3_business_search&utm_source=1oh4LhpLWuJDqe_L_DZdyw,2486,[],"seafood,bars",VnuD2cojPTWd3nIHQjnL8w
Trattoria Pulcinella,42.382737103979,-71.130739786673,False,02138,Cambridge,MA,$$$,3.0,https://www.yelp.com/biz/trattoria-pulcinella-cambridge?adjust_creative=1oh4LhpLWuJDqe_L_DZdyw&utm_campaign=yelp_api_v3&utm_medium=api_v3_business_search&utm_source=1oh4LhpLWuJDqe_L_DZdyw,47,[],italian,6q5TIpdyLXLBvOv3wyizWA
Bondir Cambridge,42.3682904,-71.0977689,False,02139,Cambridge,MA,$$$$,4.0,https://www.yelp.com/biz/bondir-cambridge-cambridge-2?adjust_creative=1oh4LhpLWuJDqe_L_DZdyw&utm_campaign=yelp_api_v3&utm_medium=api_v3_business_search&utm_source=1oh4LhpLWuJDqe_L_DZdyw,313,[],newamerican,T8DpRFty13MXLf6MB43aLg
Giulia,42.38251,-71.1200999,False,02138,Cambridge,MA,$$$,4.5,https://www.yelp.com/biz/giulia-cambridge?adjust_creative=1oh4LhpLWuJDqe_L_DZdyw&utm_campaign=yelp_api_v3&utm_medium=api_v3_business_search&utm_source=1oh4LhpLWuJDqe_L_DZdyw,393,[],italian,9RH1xBIMMAZXg9s_XW_sLg
Temple Bar,42.38273,-71.12006,False,02138,Cambridge,MA,$$,3.5,https://www.yelp.com/biz/temple-bar-cambridge?adjust_creative=1oh4LhpLWuJDqe_L_DZdyw&utm_campaign=yelp_api_v3&utm_medium=api_v3_business_search&utm_source=1oh4LhpLWuJDqe_L_DZdyw,487,[],"newamerican,bars",JZPPsLYmLCc9uwuolor7cQ
The Kirkland Tap & Trotter,42.378255,-71.106949,False,02143,Somerville,MA,$$$,3.5,https://www.yelp.com/biz/the-kirkland-tap-and-trotter-somerville-2?adjust_creative=1oh4LhpLWuJDqe_L_DZdyw&utm_campaign=yelp_api_v3&utm_medium=api_v3_business_search&utm_source=1oh4LhpLWuJDqe_L_DZdyw,422,[],newamerican,u4dXemPMSM8TeDPmodFc2A
Oleana Restaurant,42.37055,-71.09713,False,02139,Cambridge,MA,$$$,4.5,https://www.yelp.com/biz/oleana-restaurant-cambridge?adjust_creative=1oh4LhpLWuJDqe_L_DZdyw&utm_campaign=yelp_api_v3&utm_medium=api_v3_business_search&utm_source=1oh4LhpLWuJDqe_L_DZdyw,1366,[],mediterranean,kLr68qdt6nutZCuCMz5mDg
Deuxave,42.349521,-71.089166,False,02115,Boston,MA,$$$,4.0,https://www.yelp.com/biz/deuxave-boston?adjust_creative=1oh4LhpLWuJDqe_L_DZdyw&utm_campaign=yelp_api_v3&utm_medium=api_v3_business_search&utm_source=1oh4LhpLWuJDqe_L_DZdyw,479,[],"newamerican,bars",E2De90kZUtXIS2dy-vn1yg
Midwest Grill Brazilian BBQ,42.3728530184518,-71.09603,False,02139,Cambridge,MA,$$,3.0,https://www.yelp.com/biz/midwest-grill-brazilian-bbq-cambridge?adjust_creative=1oh4LhpLWuJDqe_L_DZdyw&utm_campaign=yelp_api_v3&utm_medium=api_v3_business_search&utm_source=1oh4LhpLWuJDqe_L_DZdyw,360,"['pickup', 'delivery']","steak,brazilian,bbq",TfSZgUu1Uxwcve7q1j5fLQ
Woody's Grill and Tap,42.344859,-71.089571,False,02115,Boston,MA,$$,4.0,https://www.yelp.com/biz/woodys-grill-and-tap-boston-2?adjust_creative=1oh4LhpLWuJDqe_L_DZdyw&utm_campaign=yelp_api_v3&utm_medium=api_v3_business_search&utm_source=1oh4LhpLWuJDqe_L_DZdyw,257,[],"bars,tradamerican,pizza",R7peDyHzKTGilwo_1fjt3g
Shaking Crab - Cambridge,42.38729,-71.11839,False,02140,Cambridge,MA,$$,3.5,https://www.yelp.com/biz/shaking-crab-cambridge-cambridge?adjust_creative=1oh4LhpLWuJDqe_L_DZdyw&utm_campaign=yelp_api_v3&utm_medium=api_v3_business_search&utm_source=1oh4LhpLWuJDqe_L_DZdyw,85,['restaurant_reservation'],"seafood,cajun",HU2iYyCPkmP1gxuKYoiKNg
Pho Basil,42.3457679748535,-71.0873718261719,False,02115,Boston,MA,$$,4.0,https://www.yelp.com/biz/pho-basil-boston?adjust_creative=1oh4LhpLWuJDqe_L_DZdyw&utm_campaign=yelp_api_v3&utm_medium=api_v3_business_search&utm_source=1oh4LhpLWuJDqe_L_DZdyw,1017,"['delivery', 'pickup']","vietnamese,thai,seafood",PSp0P_3zWIQabA5HAIJBMQ
Cafe Mami,42.3874328923611,-71.1186972562476,False,02140,Cambridge,MA,$,4.0,https://www.yelp.com/biz/cafe-mami-cambridge-4?adjust_creative=1oh4LhpLWuJDqe_L_DZdyw&utm_campaign=yelp_api_v3&utm_medium=api_v3_business_search&utm_source=1oh4LhpLWuJDqe_L_DZdyw,469,['delivery'],"japanese,salad,steak",zkUgoHp4cyCpOyrJKofX6A
Summer Shack-Boston,42.347067,-71.085658,False,02115,Boston,MA,$$,3.5,https://www.yelp.com/biz/summer-shack-boston-boston-2?adjust_creative=1oh4LhpLWuJDqe_L_DZdyw&utm_campaign=yelp_api_v3&utm_medium=api_v3_business_search&utm_source=1oh4LhpLWuJDqe_L_DZdyw,776,"['delivery', 'pickup']","seafood,bars,tradamerican",I07zWZ_JGqVAp3ZPxIpDYg
Boston Shawarma,42.34111,-71.08778,False,02115,Boston,MA,$,4.0,https://www.yelp.com/biz/boston-shawarma-boston-2?adjust_creative=1oh4LhpLWuJDqe_L_DZdyw&utm_campaign=yelp_api_v3&utm_medium=api_v3_business_search&utm_source=1oh4LhpLWuJDqe_L_DZdyw,357,"['delivery', 'pickup']","mideastern,halal,mediterranean",rpIRK9g0uM7Mao5jB39m3w
The Capital Grille,42.3478110031284,-71.0851110928626,False,02115,Boston,MA,$$$$,4.5,https://www.yelp.com/biz/the-capital-grille-boston?adjust_creative=1oh4LhpLWuJDqe_L_DZdyw&utm_campaign=yelp_api_v3&utm_medium=api_v3_business_search&utm_source=1oh4LhpLWuJDqe_L_DZdyw,830,[],"steak,seafood,wine_bars",XUepp8T9xSMBuvlEG_-DrQ
Select Oyster Bar,42.34861,-71.08411,False,02115,Boston,MA,$$$,3.5,https://www.yelp.com/biz/select-oyster-bar-boston?adjust_creative=1oh4LhpLWuJDqe_L_DZdyw&utm_campaign=yelp_api_v3&utm_medium=api_v3_business_search&utm_source=1oh4LhpLWuJDqe_L_DZdyw,293,[],"seafood,bars",ZAV8c9iGKV8zWHxOpTxdYQ
Towne Stove and Spirits,42.3482841,-71.0834741,False,02115,Boston,MA,$$$,3.0,https://www.yelp.com/biz/towne-stove-and-spirits-boston?adjust_creative=1oh4LhpLWuJDqe_L_DZdyw&utm_campaign=yelp_api_v3&utm_medium=api_v3_business_search&utm_source=1oh4LhpLWuJDqe_L_DZdyw,579,"['delivery', 'pickup']","newamerican,breakfast_brunch",JIBJ_1aH_gHgbLnAIX5hEw
Buk Kyung,42.3794757,-71.0955337,False,02143,Somerville,MA,$$,3.5,https://www.yelp.com/biz/buk-kyung-somerville?adjust_creative=1oh4LhpLWuJDqe_L_DZdyw&utm_campaign=yelp_api_v3&utm_medium=api_v3_business_search&utm_source=1oh4LhpLWuJDqe_L_DZdyw,239,[],"korean,seafood",zL2-u9LuxmPzC9d5qnTkvQ
The Independent,42.379665,-71.094874,False,02143,Somerville,MA,$$,3.5,https://www.yelp.com/biz/the-independent-somerville?adjust_creative=1oh4LhpLWuJDqe_L_DZdyw&utm_campaign=yelp_api_v3&utm_medium=api_v3_business_search&utm_source=1oh4LhpLWuJDqe_L_DZdyw,399,[],"bars,newamerican",xXj6XsEvpRJ0hMHAh9N02A
Top of the Hub,42.3485661293609,-71.0822875410004,False,02199,Boston,MA,$$$,3.5,https://www.yelp.com/biz/top-of-the-hub-boston?adjust_creative=1oh4LhpLWuJDqe_L_DZdyw&utm_campaign=yelp_api_v3&utm_medium=api_v3_business_search&utm_source=1oh4LhpLWuJDqe_L_DZdyw,2019,[],"newamerican,wine_bars",Ug6ngfzLT_cPzSttve1OzQ
Canary Square,42.31977,-71.11197,False,02130,Jamaica Plain,MA,$$,3.0,https://www.yelp.com/biz/canary-square-jamaica-plain?adjust_creative=1oh4LhpLWuJDqe_L_DZdyw&utm_campaign=yelp_api_v3&utm_medium=api_v3_business_search&utm_source=1oh4LhpLWuJDqe_L_DZdyw,527,[],"newamerican,breakfast_brunch,burgers",QvCYvbMNkRTe4UqVwmyb3w
Casa B Tapas and Cocktail & Rum Bar,42.3797093,-71.0942732,False,02143,Somerville,MA,$$$,4.0,https://www.yelp.com/biz/casa-b-tapas-and-cocktail-and-rum-bar-somerville-2?adjust_creative=1oh4LhpLWuJDqe_L_DZdyw&utm_campaign=yelp_api_v3&utm_medium=api_v3_business_search&utm_source=1oh4LhpLWuJDqe_L_DZdyw,258,[],"caribbean,tapasmallplates,cocktailbars",1A9alCsYB5Z5PW3yvH1HnQ
Piattini,42.34969,-71.08122,False,02116,Boston,MA,$$,4.0,https://www.yelp.com/biz/piattini-boston-3?adjust_creative=1oh4LhpLWuJDqe_L_DZdyw&utm_campaign=yelp_api_v3&utm_medium=api_v3_business_search&utm_source=1oh4LhpLWuJDqe_L_DZdyw,740,[],"italian,bars,salad",PUZSvR-nEHlhEi0gSADu7w
The Cheesecake Factory,42.345868,-71.081993,False,02199,Boston,MA,$$,3.0,https://www.yelp.com/biz/the-cheesecake-factory-boston?adjust_creative=1oh4LhpLWuJDqe_L_DZdyw&utm_campaign=yelp_api_v3&utm_medium=api_v3_business_search&utm_source=1oh4LhpLWuJDqe_L_DZdyw,602,['delivery'],"newamerican,desserts",V5r0E89VSK0IDzZRvrhc3g
Atlantic Fish,42.3492217873536,-71.0811272917217,False,02116,Boston,MA,$$$,4.0,https://www.yelp.com/biz/atlantic-fish-boston-3?adjust_creative=1oh4LhpLWuJDqe_L_DZdyw&utm_campaign=yelp_api_v3&utm_medium=api_v3_business_search&utm_source=1oh4LhpLWuJDqe_L_DZdyw,2251,['delivery'],"seafood,raw_food,cocktailbars",AGR_kBvN__I7aTl0rBywAg
Demos,42.3663721,-71.1821673,False,02472,Watertown,MA,$,3.5,https://www.yelp.com/biz/demos-watertown?adjust_creative=1oh4LhpLWuJDqe_L_DZdyw&utm_campaign=yelp_api_v3&utm_medium=api_v3_business_search&utm_source=1oh4LhpLWuJDqe_L_DZdyw,94,['delivery'],"mediterranean,greek",0ulC3Jz1eXnJJ3v2kN5Xpg
Lucca Back Bay,42.3465561,-71.0799281,False,02116,Boston,MA,$$$,4.0,https://www.yelp.com/biz/lucca-back-bay-boston?adjust_creative=1oh4LhpLWuJDqe_L_DZdyw&utm_campaign=yelp_api_v3&utm_medium=api_v3_business_search&utm_source=1oh4LhpLWuJDqe_L_DZdyw,300,[],"italian,wine_bars",4RpdVZIR3dV890pJ5hQd9A
SRV Boston,42.3409180006501,-71.0816150531173,False,02118,Boston,MA,$$$,4.5,https://www.yelp.com/biz/srv-boston-boston?adjust_creative=1oh4LhpLWuJDqe_L_DZdyw&utm_campaign=yelp_api_v3&utm_medium=api_v3_business_search&utm_source=1oh4LhpLWuJDqe_L_DZdyw,306,[],"italian,wine_bars",poswq7BdLM9Iryd9palDVQ
Lemon Thai Cuisine,42.39025,-71.10767,False,02143,Somerville,MA,$$,4.0,https://www.yelp.com/biz/lemon-thai-cuisine-somerville-2?adjust_creative=1oh4LhpLWuJDqe_L_DZdyw&utm_campaign=yelp_api_v3&utm_medium=api_v3_business_search&utm_source=1oh4LhpLWuJDqe_L_DZdyw,296,"['delivery', 'pickup']","thai,seafood,soup",4k_wbk7GppLxBhfga3Fdjw
Social Restaurant & Bar,42.356596,-71.1868268,False,02458,Newton,MA,$$,3.5,https://www.yelp.com/biz/social-restaurant-and-bar-newton?adjust_creative=1oh4LhpLWuJDqe_L_DZdyw&utm_campaign=yelp_api_v3&utm_medium=api_v3_business_search&utm_source=1oh4LhpLWuJDqe_L_DZdyw,150,[],"newamerican,bars,breakfast_brunch",DrQgIMe9fKfNvvHoXO8Y0w
Max and Leo's,42.3569993,-71.1868365,False,02458,Newton,MA,$$,4.5,https://www.yelp.com/biz/max-and-leos-newton?adjust_creative=1oh4LhpLWuJDqe_L_DZdyw&utm_campaign=yelp_api_v3&utm_medium=api_v3_business_search&utm_source=1oh4LhpLWuJDqe_L_DZdyw,337,[],"pizza,bars",3ysQylsFQj7JNIlQjncQeQ
House of Siam,42.34141,-71.08033,False,02118,Boston,MA,$$,3.5,https://www.yelp.com/biz/house-of-siam-boston?adjust_creative=1oh4LhpLWuJDqe_L_DZdyw&utm_campaign=yelp_api_v3&utm_medium=api_v3_business_search&utm_source=1oh4LhpLWuJDqe_L_DZdyw,176,"['delivery', 'pickup']","thai,seafood",PygaMm6O5n1UDHrbnm7uBg
Sorellina,42.3488367161261,-71.0779036594912,False,02116,Boston,MA,$$$$,4.0,https://www.yelp.com/biz/sorellina-boston?adjust_creative=1oh4LhpLWuJDqe_L_DZdyw&utm_campaign=yelp_api_v3&utm_medium=api_v3_business_search&utm_source=1oh4LhpLWuJDqe_L_DZdyw,637,[],"italian,bars,salad",1hWZ0K2DOKZB9Xft08VZ9g
Lolita Cocina & Tequila Bar Back Bay,42.3505860446405,-71.077508474716,False,02116,Boston,MA,$$,4.0,https://www.yelp.com/biz/lolita-cocina-and-tequila-bar-back-bay-boston?adjust_creative=1oh4LhpLWuJDqe_L_DZdyw&utm_campaign=yelp_api_v3&utm_medium=api_v3_business_search&utm_source=1oh4LhpLWuJDqe_L_DZdyw,1778,[],"mexican,lounges,cocktailbars",u51e3gychuqBYNqe2xG6_w
Fogo de Chão Brazilian Steakhouse,42.34880756427,-71.077162199668,False,02116,Boston,MA,$$$,4.0,https://www.yelp.com/biz/fogo-de-ch%C3%A3o-brazilian-steakhouse-boston-4?adjust_creative=1oh4LhpLWuJDqe_L_DZdyw&utm_campaign=yelp_api_v3&utm_medium=api_v3_business_search&utm_source=1oh4LhpLWuJDqe_L_DZdyw,648,[],"brazilian,steak",3G3GvCsArfZrhoRrIYxDkw
Legal Sea Foods,42.3469028366983,-71.0774663402672,False,02116,Boston,MA,$$$,3.5,https://www.yelp.com/biz/legal-sea-foods-boston-32?adjust_creative=1oh4LhpLWuJDqe_L_DZdyw&utm_campaign=yelp_api_v3&utm_medium=api_v3_business_search&utm_source=1oh4LhpLWuJDqe_L_DZdyw,505,[],seafood,Rr7rhulFCpGvO341g-EWVg
Thai Basil Restaurant,42.35092,-71.07669,False,02116,Boston,MA,$$,3.5,https://www.yelp.com/biz/thai-basil-restaurant-boston-2?adjust_creative=1oh4LhpLWuJDqe_L_DZdyw&utm_campaign=yelp_api_v3&utm_medium=api_v3_business_search&utm_source=1oh4LhpLWuJDqe_L_DZdyw,413,"['delivery', 'pickup']","thai,seafood,noodles",XWF0qtV3GxkgfdvAjwpfzQ
Redbones BBQ,42.395206451416,-71.1223602294922,False,02144,Somerville,MA,$$,3.5,https://www.yelp.com/biz/redbones-bbq-somerville?adjust_creative=1oh4LhpLWuJDqe_L_DZdyw&utm_campaign=yelp_api_v3&utm_medium=api_v3_business_search&utm_source=1oh4LhpLWuJDqe_L_DZdyw,1664,"['delivery', 'pickup']","bbq,bars,sandwiches",FmAIHFqUBNkCw3YBCRQLmQ
Petit Robert Bistro,42.34283,-71.07858,False,02118,Boston,MA,$$,3.5,https://www.yelp.com/biz/petit-robert-bistro-boston-3?adjust_creative=1oh4LhpLWuJDqe_L_DZdyw&utm_campaign=yelp_api_v3&utm_medium=api_v3_business_search&utm_source=1oh4LhpLWuJDqe_L_DZdyw,374,"['delivery', 'pickup']","french,breakfast_brunch,wine_bars",XgJWwSXomuSblxFBE-AxpA
Legal Sea Foods,42.32257,-71.17038,False,02467,Chestnut Hill,MA,$$$,3.0,https://www.yelp.com/biz/legal-sea-foods-chestnut-hill-6?adjust_creative=1oh4LhpLWuJDqe_L_DZdyw&utm_campaign=yelp_api_v3&utm_medium=api_v3_business_search&utm_source=1oh4LhpLWuJDqe_L_DZdyw,233,['delivery'],seafood,hewGudgB-tUk2ADWsUIHlg
Giacomo's,42.34406,-71.077732,False,02116,Boston,MA,$$,4.0,https://www.yelp.com/biz/giacomos-boston?adjust_creative=1oh4LhpLWuJDqe_L_DZdyw&utm_campaign=yelp_api_v3&utm_medium=api_v3_business_search&utm_source=1oh4LhpLWuJDqe_L_DZdyw,1126,[],"italian,seafood,wine_bars",q5HPp961WsjoVDaOmN8SwQ
Anchovies,42.343939,-71.077598,False,02116,Boston,MA,$$,4.0,https://www.yelp.com/biz/anchovies-boston?adjust_creative=1oh4LhpLWuJDqe_L_DZdyw&utm_campaign=yelp_api_v3&utm_medium=api_v3_business_search&utm_source=1oh4LhpLWuJDqe_L_DZdyw,349,[],"italian,bars,salad",EYMC8NHn6U-4WpLo54dQtw
Gaya Pizzeria,42.38452,-71.09302,False,02143,Somerville,MA,$,4.5,https://www.yelp.com/biz/gaya-pizzeria-somerville?adjust_creative=1oh4LhpLWuJDqe_L_DZdyw&utm_campaign=yelp_api_v3&utm_medium=api_v3_business_search&utm_source=1oh4LhpLWuJDqe_L_DZdyw,56,"['pickup', 'delivery']","pizza,italian",uCN25MmdW27fZ2UJQ-tU4Q
Foundry on Elm,42.39564,-71.12166,False,02144,Somerville,MA,$$,3.5,https://www.yelp.com/biz/foundry-on-elm-somerville?adjust_creative=1oh4LhpLWuJDqe_L_DZdyw&utm_campaign=yelp_api_v3&utm_medium=api_v3_business_search&utm_source=1oh4LhpLWuJDqe_L_DZdyw,726,[],"bars,gastropubs,newamerican",9-KBO2jGuvMCrM88ysDLTA
Greek Corner Restaurant,42.3964894308787,-71.1294820604383,False,02140,Cambridge,MA,$$,4.0,https://www.yelp.com/biz/greek-corner-restaurant-cambridge?adjust_creative=1oh4LhpLWuJDqe_L_DZdyw&utm_campaign=yelp_api_v3&utm_medium=api_v3_business_search&utm_source=1oh4LhpLWuJDqe_L_DZdyw,600,"['pickup', 'delivery']","greek,mediterranean",u0CvoJ_bAx5SCSiI_meUOQ
Five Horses Tavern,42.39567,-71.1208599,False,02144,Somerville,MA,$$,3.5,https://www.yelp.com/biz/five-horses-tavern-somerville?adjust_creative=1oh4LhpLWuJDqe_L_DZdyw&utm_campaign=yelp_api_v3&utm_medium=api_v3_business_search&utm_source=1oh4LhpLWuJDqe_L_DZdyw,695,[],"beerbar,newamerican,tacos",nq902iEwTCZv-EzZV2wHQA
Davio's Chestnut Hill,42.3225139947138,-71.1702501125336,False,02467,Chestnut Hill,MA,$$$,3.5,https://www.yelp.com/biz/davios-chestnut-hill-chestnut-hill-2?adjust_creative=1oh4LhpLWuJDqe_L_DZdyw&utm_campaign=yelp_api_v3&utm_medium=api_v3_business_search&utm_source=1oh4LhpLWuJDqe_L_DZdyw,107,"['pickup', 'delivery']","italian,steak,gluten_free",9LPokpPIiNCC5ilJXwX_rQ
The Talk,42.36699,-71.18738,False,02472,Watertown,MA,$$,3.5,https://www.yelp.com/biz/the-talk-watertown-2?adjust_creative=1oh4LhpLWuJDqe_L_DZdyw&utm_campaign=yelp_api_v3&utm_medium=api_v3_business_search&utm_source=1oh4LhpLWuJDqe_L_DZdyw,278,"['pickup', 'delivery']","tradamerican,italian",9jlK2GUXrk40TbN1yTSMJw
Coda,42.3462394,-71.0750068,False,02116,Boston,MA,$$,4.0,https://www.yelp.com/biz/coda-boston?adjust_creative=1oh4LhpLWuJDqe_L_DZdyw&utm_campaign=yelp_api_v3&utm_medium=api_v3_business_search&utm_source=1oh4LhpLWuJDqe_L_DZdyw,559,[],"newamerican,burgers,cocktailbars",-pK1SR3blPDEzYKwXk4L5Q
Post 390,42.3488638811714,-71.0740035028749,False,02116,Boston,MA,$$$,3.5,https://www.yelp.com/biz/post-390-boston?adjust_creative=1oh4LhpLWuJDqe_L_DZdyw&utm_campaign=yelp_api_v3&utm_medium=api_v3_business_search&utm_source=1oh4LhpLWuJDqe_L_DZdyw,614,['delivery'],"bars,newamerican",nlnWODemnfzut10tzC5x3A
The Table at Season to Taste,42.3983409,-71.1310318,False,02140,Cambridge,MA,$$$$,4.5,https://www.yelp.com/biz/the-table-at-season-to-taste-cambridge?adjust_creative=1oh4LhpLWuJDqe_L_DZdyw&utm_campaign=yelp_api_v3&utm_medium=api_v3_business_search&utm_source=1oh4LhpLWuJDqe_L_DZdyw,154,[],newamerican,WkjIWu8rIpAAUhnqsuik9w
The Brahmin,42.3484325,-71.0731806,False,02116,Boston,MA,$$,3.0,https://www.yelp.com/biz/the-brahmin-boston?adjust_creative=1oh4LhpLWuJDqe_L_DZdyw&utm_campaign=yelp_api_v3&utm_medium=api_v3_business_search&utm_source=1oh4LhpLWuJDqe_L_DZdyw,371,['delivery'],"newamerican,cocktailbars",vCaaXCYqpBsxJy2kBR67IA
FiRE + iCE  Grill + Bar,42.35066,-71.07249,False,02116,Boston,MA,$$,3.0,https://www.yelp.com/biz/fire-ice-grill-bar-boston?adjust_creative=1oh4LhpLWuJDqe_L_DZdyw&utm_campaign=yelp_api_v3&utm_medium=api_v3_business_search&utm_source=1oh4LhpLWuJDqe_L_DZdyw,621,[],"mongolian,tradamerican,cocktailbars",dz2OSto01aMIWkGHXd8lOg
Mistral,42.3481578332115,-71.072759141675,False,02116,Boston,MA,$$$$,4.0,https://www.yelp.com/biz/mistral-boston?adjust_creative=1oh4LhpLWuJDqe_L_DZdyw&utm_campaign=yelp_api_v3&utm_medium=api_v3_business_search&utm_source=1oh4LhpLWuJDqe_L_DZdyw,895,[],french,VH0Ib9S3E-dxbQdQC4rffg
Delux Café,42.34628,-71.07289,False,02116,Boston,MA,$$,4.0,https://www.yelp.com/biz/delux-caf%C3%A9-boston-2?adjust_creative=1oh4LhpLWuJDqe_L_DZdyw&utm_campaign=yelp_api_v3&utm_medium=api_v3_business_search&utm_source=1oh4LhpLWuJDqe_L_DZdyw,295,[],"bars,tradamerican",zZ7roMv_c8R4slTMPPdkng
Grill 23 & Bar,42.3494218727725,-71.0720500564835,False,02116,Boston,MA,$$$$,4.0,https://www.yelp.com/biz/grill-23-and-bar-boston?adjust_creative=1oh4LhpLWuJDqe_L_DZdyw&utm_campaign=yelp_api_v3&utm_medium=api_v3_business_search&utm_source=1oh4LhpLWuJDqe_L_DZdyw,913,[],"seafood,steak,wine_bars",_98MfEQ67r9-V78gmy8_Pg
Toro,42.3369631861411,-71.0758940796503,False,02118,Boston,MA,$$$,4.0,https://www.yelp.com/biz/toro-boston-2?adjust_creative=1oh4LhpLWuJDqe_L_DZdyw&utm_campaign=yelp_api_v3&utm_medium=api_v3_business_search&utm_source=1oh4LhpLWuJDqe_L_DZdyw,1932,[],"tapas,spanish,cocktailbars",NYa-JphaaB41ElGsb3iawA
75 Chestnut,42.35695,-71.07097,False,02108,Boston,MA,$$,4.0,https://www.yelp.com/biz/75-chestnut-boston?adjust_creative=1oh4LhpLWuJDqe_L_DZdyw&utm_campaign=yelp_api_v3&utm_medium=api_v3_business_search&utm_source=1oh4LhpLWuJDqe_L_DZdyw,431,[],"newamerican,diners,steak",qVNYCZi2ofv-oe293JsYkg
Stephi's on Tremont,42.3436382,-71.07257,False,02118,Boston,MA,$$,3.5,https://www.yelp.com/biz/stephis-on-tremont-boston?adjust_creative=1oh4LhpLWuJDqe_L_DZdyw&utm_campaign=yelp_api_v3&utm_medium=api_v3_business_search&utm_source=1oh4LhpLWuJDqe_L_DZdyw,459,['delivery'],"newamerican,comfortfood,bars",G2qQ72XEMVW4A9SNDHGwOg
Da Vinci,42.3493148,-71.07076,False,02116,Boston,MA,$$$,4.5,https://www.yelp.com/biz/da-vinci-boston?adjust_creative=1oh4LhpLWuJDqe_L_DZdyw&utm_campaign=yelp_api_v3&utm_medium=api_v3_business_search&utm_source=1oh4LhpLWuJDqe_L_DZdyw,391,['delivery'],italian,gCsidBqhALICug9E2AphCw
The Paramount,42.357291,-71.070088,False,02114,Boston,MA,$$,4.0,https://www.yelp.com/biz/the-paramount-boston?adjust_creative=1oh4LhpLWuJDqe_L_DZdyw&utm_campaign=yelp_api_v3&utm_medium=api_v3_business_search&utm_source=1oh4LhpLWuJDqe_L_DZdyw,1458,[],"breakfast_brunch,newamerican,sandwiches",sRNcBkZrs2bOrijfElHVyQ
The Butcher Shop,42.34376,-71.071454,False,02118,Boston,MA,$$$,4.0,https://www.yelp.com/biz/the-butcher-shop-boston?adjust_creative=1oh4LhpLWuJDqe_L_DZdyw&utm_campaign=yelp_api_v3&utm_medium=api_v3_business_search&utm_source=1oh4LhpLWuJDqe_L_DZdyw,481,[],"steak,butcher,modern_european",5LEP8Rcb4_To8amoZodtow
Toscano Restaurant,42.357408381604,-71.069847310732,False,02114,Boston,MA,$$$,4.0,https://www.yelp.com/biz/toscano-restaurant-boston?adjust_creative=1oh4LhpLWuJDqe_L_DZdyw&utm_campaign=yelp_api_v3&utm_medium=api_v3_business_search&utm_source=1oh4LhpLWuJDqe_L_DZdyw,456,[],italian,CB0KEBdcItjSDMOkcv7QtA
Bin 26 Enoteca,42.3567997335806,-71.0697841644287,False,02114,Boston,MA,$$$,3.5,https://www.yelp.com/biz/bin-26-enoteca-boston?adjust_creative=1oh4LhpLWuJDqe_L_DZdyw&utm_campaign=yelp_api_v3&utm_medium=api_v3_business_search&utm_source=1oh4LhpLWuJDqe_L_DZdyw,243,[],"italian,wine_bars",nBG0C0J7bnBnUMB39F5O-A
B&G Oysters,42.34388,-71.07123,False,02116,Boston,MA,$$$,4.0,https://www.yelp.com/biz/b-and-g-oysters-boston?adjust_creative=1oh4LhpLWuJDqe_L_DZdyw&utm_campaign=yelp_api_v3&utm_medium=api_v3_business_search&utm_source=1oh4LhpLWuJDqe_L_DZdyw,952,[],"seafood,wine_bars",mxjVk5rvPNhzYe_vt3OSQA
CLINK.,42.362238,-71.070537,False,02114,Boston,MA,$$$,3.0,https://www.yelp.com/biz/clink-boston?adjust_creative=1oh4LhpLWuJDqe_L_DZdyw&utm_campaign=yelp_api_v3&utm_medium=api_v3_business_search&utm_source=1oh4LhpLWuJDqe_L_DZdyw,367,[],"newamerican,lounges",DkuCJwpeiGhW41EEcOKweg
Stella,42.33994,-71.0725,False,02118,Boston,MA,$$$,4.0,https://www.yelp.com/biz/stella-boston?adjust_creative=1oh4LhpLWuJDqe_L_DZdyw&utm_campaign=yelp_api_v3&utm_medium=api_v3_business_search&utm_source=1oh4LhpLWuJDqe_L_DZdyw,761,[],"italian,wine_bars",MjpH-uP90jTUp_KqAOiBJg
Barcelona Wine Bar South End,42.3449355147724,-71.0705436362457,False,02116,Boston,MA,$$,4.5,https://www.yelp.com/biz/barcelona-wine-bar-south-end-boston-6?adjust_creative=1oh4LhpLWuJDqe_L_DZdyw&utm_campaign=yelp_api_v3&utm_medium=api_v3_business_search&utm_source=1oh4LhpLWuJDqe_L_DZdyw,862,[],"spanish,wine_bars,tapasmallplates",mP1EdIafQKMuOm9O4PzAfA
Seasons 52,42.3197912255264,-71.1753079452955,False,02467,Chestnut Hill,MA,$$,3.0,https://www.yelp.com/biz/seasons-52-chestnut-hill?adjust_creative=1oh4LhpLWuJDqe_L_DZdyw&utm_campaign=yelp_api_v3&utm_medium=api_v3_business_search&utm_source=1oh4LhpLWuJDqe_L_DZdyw,289,[],"newamerican,wine_bars,seafood",Mj9P_ON9YPDmFV4GJXYYYA
MJ O'Connor's Irish Pub,42.3511597728604,-71.0689188256007,False,02116,Boston,MA,$$,3.0,https://www.yelp.com/biz/mj-o-connors-irish-pub-boston?adjust_creative=1oh4LhpLWuJDqe_L_DZdyw&utm_campaign=yelp_api_v3&utm_medium=api_v3_business_search&utm_source=1oh4LhpLWuJDqe_L_DZdyw,220,[],"tradamerican,irish_pubs",uMZoY7AyG08rnN-YiQN7fA
Brio Tuscan Grille,42.31914,-71.17484,False,02467,Chestnut Hill,MA,$$,3.0,https://www.yelp.com/biz/brio-tuscan-grille-chestnut-hill?adjust_creative=1oh4LhpLWuJDqe_L_DZdyw&utm_campaign=yelp_api_v3&utm_medium=api_v3_business_search&utm_source=1oh4LhpLWuJDqe_L_DZdyw,176,"['pickup', 'delivery']","italian,bars",XDe1BMq0C7ljuW3a6WoAwg
Menotomy Grill & Tavern,42.4016408567533,-71.1367659924041,False,02474,Arlington,MA,$$,3.5,https://www.yelp.com/biz/menotomy-grill-and-tavern-arlington?adjust_creative=1oh4LhpLWuJDqe_L_DZdyw&utm_campaign=yelp_api_v3&utm_medium=api_v3_business_search&utm_source=1oh4LhpLWuJDqe_L_DZdyw,320,[],"tradamerican,pubs",QhhOFdwFrgHFjrUYlI67IA
Fleming's Prime Steakhouse & Wine Bar - Boston,42.350696773753,-71.06805379594,False,02116,Boston,MA,$$$,4.0,https://www.yelp.com/biz/flemings-prime-steakhouse-and-wine-bar-boston-boston?adjust_creative=1oh4LhpLWuJDqe_L_DZdyw&utm_campaign=yelp_api_v3&utm_medium=api_v3_business_search&utm_source=1oh4LhpLWuJDqe_L_DZdyw,622,['delivery'],"wine_bars,steak,seafood",AG1ETqbneinRRJUeA8PfSA
Pescatore,42.3992720452947,-71.1114629344264,False,02144,Somerville,MA,$$,4.0,https://www.yelp.com/biz/pescatore-somerville?adjust_creative=1oh4LhpLWuJDqe_L_DZdyw&utm_campaign=yelp_api_v3&utm_medium=api_v3_business_search&utm_source=1oh4LhpLWuJDqe_L_DZdyw,272,"['delivery', 'pickup']","italian,seafood",U4ppRbaM8K12j3oOyirXXg
Noor Mediterranean Grill,42.400549,-71.117545,False,02144,Somerville,MA,$$,4.5,https://www.yelp.com/biz/noor-mediterranean-grill-somerville?adjust_creative=1oh4LhpLWuJDqe_L_DZdyw&utm_campaign=yelp_api_v3&utm_medium=api_v3_business_search&utm_source=1oh4LhpLWuJDqe_L_DZdyw,193,"['delivery', 'pickup']","mediterranean,mideastern,salad",Kx3hGswNK6iuMb53KUcsvg
Sound Bites,42.3997650146484,-71.112434387207,False,02144,Somerville,MA,$$,3.5,https://www.yelp.com/biz/sound-bites-somerville?adjust_creative=1oh4LhpLWuJDqe_L_DZdyw&utm_campaign=yelp_api_v3&utm_medium=api_v3_business_search&utm_source=1oh4LhpLWuJDqe_L_DZdyw,966,[],"breakfast_brunch,mideastern,mediterranean",mIZTif2mj2-CozNOOTFFpg
The Gallows,42.3413899,-71.07019,False,02118,Boston,MA,$$,4.0,https://www.yelp.com/biz/the-gallows-boston?adjust_creative=1oh4LhpLWuJDqe_L_DZdyw&utm_campaign=yelp_api_v3&utm_medium=api_v3_business_search&utm_source=1oh4LhpLWuJDqe_L_DZdyw,796,[],"burgers,bars,tradamerican",5HMXgD_gui5n0Tc_hadesg
Sabur,42.4021175,-71.1268009,False,02144,Somerville,MA,$$,4.0,https://www.yelp.com/biz/sabur-somerville?adjust_creative=1oh4LhpLWuJDqe_L_DZdyw&utm_campaign=yelp_api_v3&utm_medium=api_v3_business_search&utm_source=1oh4LhpLWuJDqe_L_DZdyw,231,['delivery'],mediterranean,QaKYHTjR7ZygxaFUskdMEA
Tavern at the End of the World,42.38218,-71.07938,False,02129,Charlestown,MA,$$,4.0,https://www.yelp.com/biz/tavern-at-the-end-of-the-world-charlestown-2?adjust_creative=1oh4LhpLWuJDqe_L_DZdyw&utm_campaign=yelp_api_v3&utm_medium=api_v3_business_search&utm_source=1oh4LhpLWuJDqe_L_DZdyw,198,[],"pubs,newamerican",bqC8cTtPJmSAW6NUVHV9YQ
Coppa Enoteca,42.34346,-71.06873,False,02118,Boston,MA,$$$,4.0,https://www.yelp.com/biz/coppa-enoteca-boston?adjust_creative=1oh4LhpLWuJDqe_L_DZdyw&utm_campaign=yelp_api_v3&utm_medium=api_v3_business_search&utm_source=1oh4LhpLWuJDqe_L_DZdyw,777,['delivery'],"italian,tapasmallplates",GwwX5JjuOVpw0ZlBvCqEOg
Ostra,42.3510951212984,-71.0670912265778,False,02116,Boston,MA,$$$$,4.5,https://www.yelp.com/biz/ostra-boston?adjust_creative=1oh4LhpLWuJDqe_L_DZdyw&utm_campaign=yelp_api_v3&utm_medium=api_v3_business_search&utm_source=1oh4LhpLWuJDqe_L_DZdyw,361,[],seafood,_muVoNc4H_H_557WJvVWWQ
The Capital Grille,42.319210523384,-71.1776752153702,False,02467,Chestnut Hill,MA,$$$$,4.0,https://www.yelp.com/biz/the-capital-grille-chestnut-hill-2?adjust_creative=1oh4LhpLWuJDqe_L_DZdyw&utm_campaign=yelp_api_v3&utm_medium=api_v3_business_search&utm_source=1oh4LhpLWuJDqe_L_DZdyw,259,[],"steak,seafood,wine_bars",wITbeprsnf9wt1CYHIf4Dw
Fat Hen Broadway East,42.3877651174269,-71.0841531184943,False,02145,Somerville,MA,$$$,4.0,https://www.yelp.com/biz/fat-hen-broadway-east-somerville-2?adjust_creative=1oh4LhpLWuJDqe_L_DZdyw&utm_campaign=yelp_api_v3&utm_medium=api_v3_business_search&utm_source=1oh4LhpLWuJDqe_L_DZdyw,61,[],"italian,wine_bars",wt-fwK_Y4WmJ0HBui4EsIQ
Vinny's Ristorante,42.3868057,-71.081687,False,02145,Somerville,MA,$$,4.0,https://www.yelp.com/biz/vinnys-ristorante-somerville?adjust_creative=1oh4LhpLWuJDqe_L_DZdyw&utm_campaign=yelp_api_v3&utm_medium=api_v3_business_search&utm_source=1oh4LhpLWuJDqe_L_DZdyw,308,['delivery'],"italian,sandwiches,wine_bars",vyE6uuzEcB8vl11skeofrQ
Gaslight,42.3409677894859,-71.0673901926598,False,02118,Boston,MA,$$,4.0,https://www.yelp.com/biz/gaslight-brasserie-boston-5?adjust_creative=1oh4LhpLWuJDqe_L_DZdyw&utm_campaign=yelp_api_v3&utm_medium=api_v3_business_search&utm_source=1oh4LhpLWuJDqe_L_DZdyw,1839,"['delivery', 'pickup']","french,newamerican,cocktailbars",5TsjdwNt10gxGChQtGGpdg
Myers & Chang,42.3438187315924,-71.066250270967,False,02118,Boston,MA,$$,4.0,https://www.yelp.com/biz/myers-and-chang-boston?adjust_creative=1oh4LhpLWuJDqe_L_DZdyw&utm_campaign=yelp_api_v3&utm_medium=api_v3_business_search&utm_source=1oh4LhpLWuJDqe_L_DZdyw,1473,[],"asianfusion,taiwanese,cocktailbars",72PQGMhrEcIuWH-S44TprA
Genki Ya - Boston,42.3512381908724,-71.0646977122882,False,02116,Boston,MA,$$,3.5,https://www.yelp.com/biz/genki-ya-boston-boston?adjust_creative=1oh4LhpLWuJDqe_L_DZdyw&utm_campaign=yelp_api_v3&utm_medium=api_v3_business_search&utm_source=1oh4LhpLWuJDqe_L_DZdyw,426,"['delivery', 'pickup']","sushi,japanese,bars",0s8iv660dB30pHK4W1r6KA
Montien Thai Restaurant,42.3512038320959,-71.0643856379959,False,02116,Boston,MA,$$,3.5,https://www.yelp.com/biz/montien-thai-restaurant-boston-8?adjust_creative=1oh4LhpLWuJDqe_L_DZdyw&utm_campaign=yelp_api_v3&utm_medium=api_v3_business_search&utm_source=1oh4LhpLWuJDqe_L_DZdyw,417,"['delivery', 'pickup']","thai,seafood,cocktailbars",W2YNtO5W_ZK6o-1t8uLcYw
Explorateur,42.3525041478305,-71.0645898026879,False,02116,Boston,MA,$$,3.0,https://www.yelp.com/biz/explorateur-boston-2?adjust_creative=1oh4LhpLWuJDqe_L_DZdyw&utm_campaign=yelp_api_v3&utm_medium=api_v3_business_search&utm_source=1oh4LhpLWuJDqe_L_DZdyw,210,[],"french,bars,newamerican",dy-XO6rRE1cAMMrpMDQRrw
Cinquecento,42.34191,-71.06592,False,02118,Boston,MA,$$$,4.0,https://www.yelp.com/biz/cinquecento-boston-2?adjust_creative=1oh4LhpLWuJDqe_L_DZdyw&utm_campaign=yelp_api_v3&utm_medium=api_v3_business_search&utm_source=1oh4LhpLWuJDqe_L_DZdyw,475,['delivery'],"italian,seafood,bars",5rINmqRcMlJCBR3vwMKbtg
Artisan Bistro,42.3530455760703,-71.063533497163,False,02111,Boston,MA,$$$,3.0,https://www.yelp.com/biz/artisan-bistro-boston-3?adjust_creative=1oh4LhpLWuJDqe_L_DZdyw&utm_campaign=yelp_api_v3&utm_medium=api_v3_business_search&utm_source=1oh4LhpLWuJDqe_L_DZdyw,93,[],newamerican,RNqUyblZzXvg0a2fBjJQQg
Blu Restaurant & Bar,42.353012,-71.063359,False,02111,Boston,MA,$$$,3.5,https://www.yelp.com/biz/blu-restaurant-and-bar-boston?adjust_creative=1oh4LhpLWuJDqe_L_DZdyw&utm_campaign=yelp_api_v3&utm_medium=api_v3_business_search&utm_source=1oh4LhpLWuJDqe_L_DZdyw,226,['pickup'],"newamerican,seafood",KwL8wWNuUHoplvn8ff97bg
Grotto,42.3598607550211,-71.063289740014,False,02114,Boston,MA,$$$,4.0,https://www.yelp.com/biz/grotto-boston?adjust_creative=1oh4LhpLWuJDqe_L_DZdyw&utm_campaign=yelp_api_v3&utm_medium=api_v3_business_search&utm_source=1oh4LhpLWuJDqe_L_DZdyw,751,[],italian,J1uidHIL7nE_noUuvFXj0A
No. 9 Park,42.3576202392578,-71.0627899169922,False,02108,Boston,MA,$$$$,4.0,https://www.yelp.com/biz/no-9-park-boston?adjust_creative=1oh4LhpLWuJDqe_L_DZdyw&utm_campaign=yelp_api_v3&utm_medium=api_v3_business_search&utm_source=1oh4LhpLWuJDqe_L_DZdyw,605,[],"french,italian",uYqizPy4eUSpwOha0RkVPg
Scollay Square,42.3581238,-71.0625665,False,02108,Boston,MA,$$,3.5,https://www.yelp.com/biz/scollay-square-boston?adjust_creative=1oh4LhpLWuJDqe_L_DZdyw&utm_campaign=yelp_api_v3&utm_medium=api_v3_business_search&utm_source=1oh4LhpLWuJDqe_L_DZdyw,526,"['delivery', 'pickup']","seafood,tradamerican,cocktailbars",RQUZgVKcgenO-FjTg0j80A
Black Seed Cafe & Grill,42.3559590560211,-71.0623185869938,False,02111,Boston,MA,$,3.5,https://www.yelp.com/biz/black-seed-cafe-and-grill-boston-2?adjust_creative=1oh4LhpLWuJDqe_L_DZdyw&utm_campaign=yelp_api_v3&utm_medium=api_v3_business_search&utm_source=1oh4LhpLWuJDqe_L_DZdyw,221,['pickup'],"mideastern,halal,falafel",jhFi0oxdyiyCYK7i-CW59A
Pita,42.33975,-71.06499,False,02118,Boston,MA,$,4.0,https://www.yelp.com/biz/pita-boston-2?adjust_creative=1oh4LhpLWuJDqe_L_DZdyw&utm_campaign=yelp_api_v3&utm_medium=api_v3_business_search&utm_source=1oh4LhpLWuJDqe_L_DZdyw,205,"['delivery', 'pickup']","mediterranean,mideastern,moroccan",llMSRtQledMr2T9Qbm9VIQ
49 Social,42.35487,-71.06184,False,02111,Boston,MA,$$$,3.5,https://www.yelp.com/biz/49-social-boston?adjust_creative=1oh4LhpLWuJDqe_L_DZdyw&utm_campaign=yelp_api_v3&utm_medium=api_v3_business_search&utm_source=1oh4LhpLWuJDqe_L_DZdyw,208,[],newamerican,tyVAy-kkpui3p7zxxZok7g
Mooo Restaurant,42.3583014944831,-71.0619811489821,False,02108,Boston,MA,$$$$,4.0,https://www.yelp.com/biz/mooo-restaurant-boston?adjust_creative=1oh4LhpLWuJDqe_L_DZdyw&utm_campaign=yelp_api_v3&utm_medium=api_v3_business_search&utm_source=1oh4LhpLWuJDqe_L_DZdyw,777,[],"steak,wine_bars,breakfast_brunch",fEKzWC1sbfZSElp46FoNag
Carrie Nation Restaurant & Cocktail Club,42.35846,-71.061772,False,02108,Boston,MA,$$,3.5,https://www.yelp.com/biz/carrie-nation-restaurant-and-cocktail-club-boston?adjust_creative=1oh4LhpLWuJDqe_L_DZdyw&utm_campaign=yelp_api_v3&utm_medium=api_v3_business_search&utm_source=1oh4LhpLWuJDqe_L_DZdyw,292,[],"tradamerican,cocktailbars,salad",mTyK9-_6CYY6XYAG56c68Q
Silvertone,42.3571471,-71.0608731,False,02108,Boston,MA,$$,4.0,https://www.yelp.com/biz/silvertone-boston?adjust_creative=1oh4LhpLWuJDqe_L_DZdyw&utm_campaign=yelp_api_v3&utm_medium=api_v3_business_search&utm_source=1oh4LhpLWuJDqe_L_DZdyw,819,[],"tradamerican,cocktailbars,sandwiches",_RWkck7niE8VJG3zLXK2ig
Bubor Cha Cha,42.351277,-71.0608755,False,02111,Boston,MA,$$,3.0,https://www.yelp.com/biz/bubor-cha-cha-boston-2?adjust_creative=1oh4LhpLWuJDqe_L_DZdyw&utm_campaign=yelp_api_v3&utm_medium=api_v3_business_search&utm_source=1oh4LhpLWuJDqe_L_DZdyw,307,[],"dimsum,seafood,cantonese",2bncbx08BFs_IO6H-yWBxw
Beantown Pub,42.357451481565,-71.060911746876,False,02108,Boston,MA,$$,3.0,https://www.yelp.com/biz/beantown-pub-boston?adjust_creative=1oh4LhpLWuJDqe_L_DZdyw&utm_campaign=yelp_api_v3&utm_medium=api_v3_business_search&utm_source=1oh4LhpLWuJDqe_L_DZdyw,568,[],"pubs,tradamerican,breakfast_brunch",V8_e5MRjfexH4WFBqjDWCg
China Pearl Restaurant,42.35113,-71.06077,False,02111,Boston,MA,$$,3.0,https://www.yelp.com/biz/china-pearl-restaurant-boston?adjust_creative=1oh4LhpLWuJDqe_L_DZdyw&utm_campaign=yelp_api_v3&utm_medium=api_v3_business_search&utm_source=1oh4LhpLWuJDqe_L_DZdyw,501,['delivery'],"dimsum,seafood,cantonese",4mClpg19Ntiw1s75kF19Bg
99 Restaurants,42.39401,-71.08388,False,02145,Somerville,MA,$$,3.0,https://www.yelp.com/biz/99-restaurants-somerville-2?adjust_creative=1oh4LhpLWuJDqe_L_DZdyw&utm_campaign=yelp_api_v3&utm_medium=api_v3_business_search&utm_source=1oh4LhpLWuJDqe_L_DZdyw,76,[],"tradamerican,pubs",VlXOIzTFaEwF--oPFzfDkA
Shabu-Zen,42.3508174908521,-71.0606166602329,False,02111,Boston,MA,$$,4.0,https://www.yelp.com/biz/shabu-zen-boston?adjust_creative=1oh4LhpLWuJDqe_L_DZdyw&utm_campaign=yelp_api_v3&utm_medium=api_v3_business_search&utm_source=1oh4LhpLWuJDqe_L_DZdyw,829,[],"hotpot,diyfood,fondue",hHVq3NS0ZW9G-ZcLurvUJQ
Jade Garden,42.3507521023507,-71.0606135564487,False,02111,Boston,MA,$$,3.5,https://www.yelp.com/biz/jade-garden-boston?adjust_creative=1oh4LhpLWuJDqe_L_DZdyw&utm_campaign=yelp_api_v3&utm_medium=api_v3_business_search&utm_source=1oh4LhpLWuJDqe_L_DZdyw,189,[],"chinese,seafood,chicken_wings",ZJw7_sCOfaUmib1Q0vBAZA
Marliave,42.357014071346,-71.060306250729,False,02108,Boston,MA,$$$,4.0,https://www.yelp.com/biz/marliave-boston?adjust_creative=1oh4LhpLWuJDqe_L_DZdyw&utm_campaign=yelp_api_v3&utm_medium=api_v3_business_search&utm_source=1oh4LhpLWuJDqe_L_DZdyw,1165,[],"french,italian,cocktailbars",9m678PeuzwYamIf6sysUHg
New Jumbo Seafood Restaurant,42.35095,-71.06019,False,02111,Boston,MA,$$,3.5,https://www.yelp.com/biz/new-jumbo-seafood-restaurant-boston?adjust_creative=1oh4LhpLWuJDqe_L_DZdyw&utm_campaign=yelp_api_v3&utm_medium=api_v3_business_search&utm_source=1oh4LhpLWuJDqe_L_DZdyw,315,"['pickup', 'delivery']","seafood,chinese",DImi8qeCP-OUaLA8L2QR6A
Il Casale,42.397428892592,-71.175656206441,False,02478,Belmont,MA,$$$,3.5,https://www.yelp.com/biz/il-casale-belmont?adjust_creative=1oh4LhpLWuJDqe_L_DZdyw&utm_campaign=yelp_api_v3&utm_medium=api_v3_business_search&utm_source=1oh4LhpLWuJDqe_L_DZdyw,271,[],italian,qbeheL7TS1oJMlUnJo1aPQ
Ruth's Chris Steak House,42.358141,-71.059337,False,02108,Boston,MA,$$$$,4.0,https://www.yelp.com/biz/ruths-chris-steak-house-boston-2?adjust_creative=1oh4LhpLWuJDqe_L_DZdyw&utm_campaign=yelp_api_v3&utm_medium=api_v3_business_search&utm_source=1oh4LhpLWuJDqe_L_DZdyw,736,[],steak,_VEQpntwiMLUbNPLvxvwzA
Tangierino,42.3737908991311,-71.0626434508932,False,02129,Charlestown,MA,$$$,3.5,https://www.yelp.com/biz/tangierino-charlestown?adjust_creative=1oh4LhpLWuJDqe_L_DZdyw&utm_campaign=yelp_api_v3&utm_medium=api_v3_business_search&utm_source=1oh4LhpLWuJDqe_L_DZdyw,554,[],"moroccan,french,lounges",UGJpzdTghcvMekA1ML0-kA
Figs by Todd English,42.3736834,-71.062382,False,02129,Charlestown,MA,$$,3.5,https://www.yelp.com/biz/figs-by-todd-english-charlestown?adjust_creative=1oh4LhpLWuJDqe_L_DZdyw&utm_campaign=yelp_api_v3&utm_medium=api_v3_business_search&utm_source=1oh4LhpLWuJDqe_L_DZdyw,353,"['pickup', 'delivery', 'restaurant_reservation']","pizza,italian,tradamerican",meznC0oLcwFAeD_3AIyLRw
Outback Steakhouse,42.3953967732796,-71.0807689164168,False,02145,Somerville,MA,$$,2.5,https://www.yelp.com/biz/outback-steakhouse-somerville?adjust_creative=1oh4LhpLWuJDqe_L_DZdyw&utm_campaign=yelp_api_v3&utm_medium=api_v3_business_search&utm_source=1oh4LhpLWuJDqe_L_DZdyw,190,[],steak,E6nIsqfg-1Qsp94wkDHzsg
The Bell In Hand,42.3615760803223,-71.0570678710938,False,02108,Boston,MA,$$,3.5,https://www.yelp.com/biz/the-bell-in-hand-boston?adjust_creative=1oh4LhpLWuJDqe_L_DZdyw&utm_campaign=yelp_api_v3&utm_medium=api_v3_business_search&utm_source=1oh4LhpLWuJDqe_L_DZdyw,751,[],"lounges,pubs,musicvenues",uCJqYrBSITSrJBHyMPznwg
Southern Kin Cookhouse,33.655179,-117.998058,False,02145,Somerville,MA,$$,4.0,https://www.yelp.com/biz/southern-kin-cookhouse-somerville?adjust_creative=1oh4LhpLWuJDqe_L_DZdyw&utm_campaign=yelp_api_v3&utm_medium=api_v3_business_search&utm_source=1oh4LhpLWuJDqe_L_DZdyw,738,[],"southern,cocktailbars",PMnU-trprMtR9p3V_9uXLw
Union Oyster House,42.36126,-71.05688,False,02108,Boston,MA,$$,3.5,https://www.yelp.com/biz/union-oyster-house-boston?adjust_creative=1oh4LhpLWuJDqe_L_DZdyw&utm_campaign=yelp_api_v3&utm_medium=api_v3_business_search&utm_source=1oh4LhpLWuJDqe_L_DZdyw,2321,[],"seafood,bars",Ruq91rmQNweZ78TzKylQMg
Boloco,42.3543117,-71.0563778,False,02110,Boston,MA,$,4.0,https://www.yelp.com/biz/boloco-boston-49?adjust_creative=1oh4LhpLWuJDqe_L_DZdyw&utm_campaign=yelp_api_v3&utm_medium=api_v3_business_search&utm_source=1oh4LhpLWuJDqe_L_DZdyw,114,"['pickup', 'delivery']",newamerican,_nPHDeWqacE5BVbGvRgIrg
Papagayo,42.3959788157284,-71.0809200277394,False,02145,Somerville,MA,$$,2.5,https://www.yelp.com/biz/papagayo-somerville-3?adjust_creative=1oh4LhpLWuJDqe_L_DZdyw&utm_campaign=yelp_api_v3&utm_medium=api_v3_business_search&utm_source=1oh4LhpLWuJDqe_L_DZdyw,332,"['pickup', 'delivery']","mexican,bars",tqq3nQ9Gg0sNNrlndZlSHw
Top Mix Bar & Kitchen,42.32374,-71.06808,False,02119,Boston,MA,$$,4.5,https://www.yelp.com/biz/top-mix-bar-and-kitchen-boston?adjust_creative=1oh4LhpLWuJDqe_L_DZdyw&utm_campaign=yelp_api_v3&utm_medium=api_v3_business_search&utm_source=1oh4LhpLWuJDqe_L_DZdyw,37,[],"cocktailbars,newamerican",l6Ye6vPB6ZPZbxVxMMgvPQ
Earls Kitchen + Bar,42.395802,-71.080043,False,02145,Somerville,MA,$$,3.0,https://www.yelp.com/biz/earls-kitchen-bar-somerville-4?adjust_creative=1oh4LhpLWuJDqe_L_DZdyw&utm_campaign=yelp_api_v3&utm_medium=api_v3_business_search&utm_source=1oh4LhpLWuJDqe_L_DZdyw,860,[],"newamerican,cocktailbars",sYhfhua7GWiGLQkIUP_TWQ
River Bar,42.3956821533802,-71.0794330957702,False,02145,Somerville,MA,$$,3.0,https://www.yelp.com/biz/river-bar-somerville-2?adjust_creative=1oh4LhpLWuJDqe_L_DZdyw&utm_campaign=yelp_api_v3&utm_medium=api_v3_business_search&utm_source=1oh4LhpLWuJDqe_L_DZdyw,227,[],"cocktailbars,gastropubs,newamerican",YwtjSs7ul_6RX1WnWglxIA
Anthem Kitchen and Bar,42.359763021257,-71.0556122920653,False,02109,Boston,MA,$$,3.5,https://www.yelp.com/biz/anthem-kitchen-and-bar-boston?adjust_creative=1oh4LhpLWuJDqe_L_DZdyw&utm_campaign=yelp_api_v3&utm_medium=api_v3_business_search&utm_source=1oh4LhpLWuJDqe_L_DZdyw,430,[],"newamerican,bars",RF2YhEH__pDNKAhMwZmCUA
McCormick & Schmick's Seafood & Steaks,42.3604507,-71.0557034,False,02109,Boston,MA,$$,2.5,https://www.yelp.com/biz/mccormick-and-schmicks-seafood-and-steaks-boston-2?adjust_creative=1oh4LhpLWuJDqe_L_DZdyw&utm_campaign=yelp_api_v3&utm_medium=api_v3_business_search&utm_source=1oh4LhpLWuJDqe_L_DZdyw,359,[],"seafood,tradamerican,steak",qpg8rxHXMDl8FKLxdxdl3A
Neptune Oyster,42.3632711771092,-71.0560575975533,False,02113,Boston,MA,$$$,4.5,https://www.yelp.com/biz/neptune-oyster-boston?adjust_creative=1oh4LhpLWuJDqe_L_DZdyw&utm_campaign=yelp_api_v3&utm_medium=api_v3_business_search&utm_source=1oh4LhpLWuJDqe_L_DZdyw,4389,[],"seafood,bars",y2w6rFaO0XEiG5mFfOsiFA
Moonshine 152,42.34133,-71.0569151,False,02127,Boston,MA,$$,4.5,https://www.yelp.com/biz/moonshine-152-boston?adjust_creative=1oh4LhpLWuJDqe_L_DZdyw&utm_campaign=yelp_api_v3&utm_medium=api_v3_business_search&utm_source=1oh4LhpLWuJDqe_L_DZdyw,281,['delivery'],"newamerican,asianfusion",1C32E52HmhRC3GNwkX2nZg
Antico Forno,42.363801,-71.0556657,False,02113,Boston,MA,$$,3.5,https://www.yelp.com/biz/antico-forno-boston-4?adjust_creative=1oh4LhpLWuJDqe_L_DZdyw&utm_campaign=yelp_api_v3&utm_medium=api_v3_business_search&utm_source=1oh4LhpLWuJDqe_L_DZdyw,847,"['pickup', 'restaurant_reservation']","italian,pizza",tW09hLpf18PYJxNAvNoCqA
L'osteria,42.3642414808273,-71.0556153953075,False,02113,Boston,MA,$$,3.5,https://www.yelp.com/biz/l-osteria-boston?adjust_creative=1oh4LhpLWuJDqe_L_DZdyw&utm_campaign=yelp_api_v3&utm_medium=api_v3_business_search&utm_source=1oh4LhpLWuJDqe_L_DZdyw,271,['delivery'],"italian,coffee",JdVlUaXM9aZQ68tjgonszw
Mother Anna's Restaurant,42.3626204897386,-71.0556380796006,False,02113,Boston,MA,$$,3.5,https://www.yelp.com/biz/mother-annas-restaurant-boston?adjust_creative=1oh4LhpLWuJDqe_L_DZdyw&utm_campaign=yelp_api_v3&utm_medium=api_v3_business_search&utm_source=1oh4LhpLWuJDqe_L_DZdyw,289,[],italian,wdKi_CGVXIgdah5kaUsZKA
BOND Restaurant and Lounge,42.35664,-71.05428,False,02110,Boston,MA,$$$,3.0,https://www.yelp.com/biz/bond-restaurant-and-lounge-boston-2?adjust_creative=1oh4LhpLWuJDqe_L_DZdyw&utm_campaign=yelp_api_v3&utm_medium=api_v3_business_search&utm_source=1oh4LhpLWuJDqe_L_DZdyw,214,[],"lounges,newamerican",P1LZAzIiVCd0AuJ3rmjDMQ
Loconte's Italian Cuisine,42.36468,-71.05566,False,02113,Boston,MA,$$,3.5,https://www.yelp.com/biz/locontes-italian-cuisine-boston?adjust_creative=1oh4LhpLWuJDqe_L_DZdyw&utm_campaign=yelp_api_v3&utm_medium=api_v3_business_search&utm_source=1oh4LhpLWuJDqe_L_DZdyw,274,"['pickup', 'delivery']","italian,wine_bars,seafood",J4UsOYwRprbJXIVB_NcldQ
Sabatino's Italian Kitchen,42.34885,-71.14043,False,02135,Brighton,MA,$,3.5,https://www.yelp.com/biz/sabatinos-italian-kitchen-brighton-2?adjust_creative=1oh4LhpLWuJDqe_L_DZdyw&utm_campaign=yelp_api_v3&utm_medium=api_v3_business_search&utm_source=1oh4LhpLWuJDqe_L_DZdyw,190,"['pickup', 'delivery']","italian,pizza,sandwiches",lX2o7nBmXkTJiojIqVO6PQ
Bamboo Thai Restaurant,42.343273,-71.142808,False,02135,Brighton,MA,$$,4.0,https://www.yelp.com/biz/bamboo-thai-restaurant-brighton?adjust_creative=1oh4LhpLWuJDqe_L_DZdyw&utm_campaign=yelp_api_v3&utm_medium=api_v3_business_search&utm_source=1oh4LhpLWuJDqe_L_DZdyw,351,"['pickup', 'delivery']","thai,bars,salad",wOw3Hb1ImlNBc0-eI13Dhw
Stockyard Restaurant,42.357783,-71.1486165,False,02135,Brighton,MA,$$$,4.0,https://www.yelp.com/biz/stockyard-restaurant-brighton-3?adjust_creative=1oh4LhpLWuJDqe_L_DZdyw&utm_campaign=yelp_api_v3&utm_medium=api_v3_business_search&utm_source=1oh4LhpLWuJDqe_L_DZdyw,262,[],"bars,seafood,steak",B0ZTztL-vjgm2Tc1ZxSbHg
Lone Star Taco Bar,42.353849,-71.137078,False,02134,Allston,MA,$$,4.0,https://www.yelp.com/biz/lone-star-taco-bar-allston?adjust_creative=1oh4LhpLWuJDqe_L_DZdyw&utm_campaign=yelp_api_v3&utm_medium=api_v3_business_search&utm_source=1oh4LhpLWuJDqe_L_DZdyw,469,[],"bars,tacos",1exJzD7WPZzJ72JRG1CGWg
Barcelona Wine Bar,42.3387152,-71.1389332,False,02446,Brookline,MA,$$$,4.5,https://www.yelp.com/biz/barcelona-wine-bar-brookline-3?adjust_creative=1oh4LhpLWuJDqe_L_DZdyw&utm_campaign=yelp_api_v3&utm_medium=api_v3_business_search&utm_source=1oh4LhpLWuJDqe_L_DZdyw,1145,[],"tapasmallplates,spanish,wine_bars",ck8Id2EaJ20Alj0N8UMvBQ
Lulu's Allston,42.3550647,-71.1341649,False,02134,Boston,MA,$$,4.0,https://www.yelp.com/biz/lulus-allston-boston-4?adjust_creative=1oh4LhpLWuJDqe_L_DZdyw&utm_campaign=yelp_api_v3&utm_medium=api_v3_business_search&utm_source=1oh4LhpLWuJDqe_L_DZdyw,395,"['pickup', 'delivery']","newamerican,sportsbars",FioFvBhgVPV2dZW3mxjxQQ
The Publick House,42.3394130267999,-71.1367036548893,False,02445,Brookline,MA,$$,4.0,https://www.yelp.com/biz/the-publick-house-brookline?adjust_creative=1oh4LhpLWuJDqe_L_DZdyw&utm_campaign=yelp_api_v3&utm_medium=api_v3_business_search&utm_source=1oh4LhpLWuJDqe_L_DZdyw,1132,[],"pubs,tradamerican,belgian",rK-fgI2_-x0T4lxwF9L4Ww
Loui Loui,42.3528499,-71.13262,False,02134,Allston,MA,$$,4.0,https://www.yelp.com/biz/loui-loui-allston-3?adjust_creative=1oh4LhpLWuJDqe_L_DZdyw&utm_campaign=yelp_api_v3&utm_medium=api_v3_business_search&utm_source=1oh4LhpLWuJDqe_L_DZdyw,146,"['pickup', 'delivery']","southern,cajun,seafood",c3V_1Dakp0UspkZayn0AjQ
The Abbey,42.33863,-71.13683,False,02445,Brookline,MA,$$,4.0,https://www.yelp.com/biz/the-abbey-brookline?adjust_creative=1oh4LhpLWuJDqe_L_DZdyw&utm_campaign=yelp_api_v3&utm_medium=api_v3_business_search&utm_source=1oh4LhpLWuJDqe_L_DZdyw,429,[],newamerican,knIq-vPHJGFC0UzAtIFESw
Oppa Sushi,42.350904,-71.1313152,False,02134,Boston,MA,$$,4.5,https://www.yelp.com/biz/oppa-sushi-boston-2?adjust_creative=1oh4LhpLWuJDqe_L_DZdyw&utm_campaign=yelp_api_v3&utm_medium=api_v3_business_search&utm_source=1oh4LhpLWuJDqe_L_DZdyw,208,"['pickup', 'delivery']","sushi,japanese,seafood",vVF-M6yj3uUljHFZ_WXeiw
The Washington Square Tavern,42.339123,-71.135212,False,02445,Brookline,MA,$$,4.0,https://www.yelp.com/biz/the-washington-square-tavern-brookline?adjust_creative=1oh4LhpLWuJDqe_L_DZdyw&utm_campaign=yelp_api_v3&utm_medium=api_v3_business_search&utm_source=1oh4LhpLWuJDqe_L_DZdyw,286,[],"bars,tradamerican",_vsgjhqs356JqeAPsP6XOQ
Le's Vietnamese Resturant,42.35313,-71.1313799,False,02134,Allston,MA,$,4.0,https://www.yelp.com/biz/les-vietnamese-resturant-allston-2?adjust_creative=1oh4LhpLWuJDqe_L_DZdyw&utm_campaign=yelp_api_v3&utm_medium=api_v3_business_search&utm_source=1oh4LhpLWuJDqe_L_DZdyw,627,"['pickup', 'delivery']","vietnamese,seafood,noodles",zmZ3HkVCeZPBefJJxzdJ7A
Carlo's Cucina Italiana,42.3531,-71.13116,False,02134,Allston,MA,$$,4.5,https://www.yelp.com/biz/carlos-cucina-italiana-allston-2?adjust_creative=1oh4LhpLWuJDqe_L_DZdyw&utm_campaign=yelp_api_v3&utm_medium=api_v3_business_search&utm_source=1oh4LhpLWuJDqe_L_DZdyw,615,[],"italian,desserts,salad",aqNd1SaHTNGATIOy24sYxQ
Sakanaya,42.352581779668,-71.130359172821,False,02134,Boston,MA,$$,4.0,https://www.yelp.com/biz/sakanaya-boston?adjust_creative=1oh4LhpLWuJDqe_L_DZdyw&utm_campaign=yelp_api_v3&utm_medium=api_v3_business_search&utm_source=1oh4LhpLWuJDqe_L_DZdyw,128,[],"seafood,japanese,seafoodmarkets",QXdEeuL4cA_KcGMrh5o5rA
Ariana Restaurant,42.3627373286036,-71.1378785311356,False,02135,Brighton,MA,$$,4.5,https://www.yelp.com/biz/ariana-restaurant-brighton?adjust_creative=1oh4LhpLWuJDqe_L_DZdyw&utm_campaign=yelp_api_v3&utm_medium=api_v3_business_search&utm_source=1oh4LhpLWuJDqe_L_DZdyw,372,"['pickup', 'delivery']",afghani,-iOW4FIS61TbvsWH-vmhEQ
Shiraz Persian Cuisine,42.368427,-71.157173,False,02472,Watertown,MA,$$,3.5,https://www.yelp.com/biz/shiraz-persian-cuisine-watertown-2?adjust_creative=1oh4LhpLWuJDqe_L_DZdyw&utm_campaign=yelp_api_v3&utm_medium=api_v3_business_search&utm_source=1oh4LhpLWuJDqe_L_DZdyw,126,"['pickup', 'delivery']","mideastern,persian",Vco3twYE0sD4kb0O1_PLoQ
Coolidge Corner Clubhouse,42.3432707,-71.1227847,False,02446,Brookline,MA,$$,3.0,https://www.yelp.com/biz/coolidge-corner-clubhouse-brookline?adjust_creative=1oh4LhpLWuJDqe_L_DZdyw&utm_campaign=yelp_api_v3&utm_medium=api_v3_business_search&utm_source=1oh4LhpLWuJDqe_L_DZdyw,405,"['pickup', 'delivery']","sportsbars,tradamerican",435AFqUlpfkv2MvSHw6S8A
Victoria Seafood Restaurant,42.3520916,-71.1218514,False,02215,Boston,MA,$$,3.5,https://www.yelp.com/biz/victoria-seafood-restaurant-boston?adjust_creative=1oh4LhpLWuJDqe_L_DZdyw&utm_campaign=yelp_api_v3&utm_medium=api_v3_business_search&utm_source=1oh4LhpLWuJDqe_L_DZdyw,280,[],"chinese,seafood",9Jiax4wZ94ZmMcMzmpdvJA
Upper Crust Pizzeria,42.342702819047,-71.122274201893,False,02446,Brookline,MA,$$,3.0,https://www.yelp.com/biz/upper-crust-pizzeria-brookline?adjust_creative=1oh4LhpLWuJDqe_L_DZdyw&utm_campaign=yelp_api_v3&utm_medium=api_v3_business_search&utm_source=1oh4LhpLWuJDqe_L_DZdyw,323,"['pickup', 'delivery']","pizza,italian",0f7KLXeVKJ1dZg5OqIGtPw
Hops N Scotch,42.342279921681,-71.120692058386,False,02446,Brookline,MA,$$,3.5,https://www.yelp.com/biz/hops-n-scotch-brookline?adjust_creative=1oh4LhpLWuJDqe_L_DZdyw&utm_campaign=yelp_api_v3&utm_medium=api_v3_business_search&utm_source=1oh4LhpLWuJDqe_L_DZdyw,402,[],"bars,newamerican",djb7jPPMwVOBfCE5K7Ilog
Henrietta's Table,42.3722372983189,-71.123303919788,False,02138,Cambridge,MA,$$$,3.5,https://www.yelp.com/biz/henriettas-table-cambridge?adjust_creative=1oh4LhpLWuJDqe_L_DZdyw&utm_campaign=yelp_api_v3&utm_medium=api_v3_business_search&utm_source=1oh4LhpLWuJDqe_L_DZdyw,746,[],"newamerican,breakfast_brunch",1iY5q6spBS_DNWyemY829A
Basta Pasta Trattoria,42.36463,-71.11323,False,02139,Cambridge,MA,$$,4.0,https://www.yelp.com/biz/basta-pasta-trattoria-cambridge-2?adjust_creative=1oh4LhpLWuJDqe_L_DZdyw&utm_campaign=yelp_api_v3&utm_medium=api_v3_business_search&utm_source=1oh4LhpLWuJDqe_L_DZdyw,421,['delivery'],"italian,pizza",psmBt1lYNosvPbzlSbmJFA
Harvest,42.3736842141857,-71.1220836964934,False,02138,Cambridge,MA,$$$,3.5,https://www.yelp.com/biz/harvest-cambridge?adjust_creative=1oh4LhpLWuJDqe_L_DZdyw&utm_campaign=yelp_api_v3&utm_medium=api_v3_business_search&utm_source=1oh4LhpLWuJDqe_L_DZdyw,476,[],"newamerican,seafood,desserts",uSM_sCp22BJWeatTDl6ODA
The Sinclair,42.3740424730598,-71.1206986302351,False,02138,Cambridge,MA,$$,3.5,https://www.yelp.com/biz/the-sinclair-cambridge?adjust_creative=1oh4LhpLWuJDqe_L_DZdyw&utm_campaign=yelp_api_v3&utm_medium=api_v3_business_search&utm_source=1oh4LhpLWuJDqe_L_DZdyw,388,[],"musicvenues,newamerican,tradamerican",aVS9DWS7GUcF6oExGmYnlg
Border Café,42.374278750456,-71.120297821449,False,02138,Cambridge,MA,$$,4.0,https://www.yelp.com/biz/border-cafe-cambridge?adjust_creative=1oh4LhpLWuJDqe_L_DZdyw&utm_campaign=yelp_api_v3&utm_medium=api_v3_business_search&utm_source=1oh4LhpLWuJDqe_L_DZdyw,1757,[],"tex-mex,cajun,mexican",pvlM--HZY1a8SqMXiwEz1A
Grafton Street,42.3722389912824,-71.1159181268549,False,02138,Cambridge,MA,$$,3.5,https://www.yelp.com/biz/grafton-street-cambridge?adjust_creative=1oh4LhpLWuJDqe_L_DZdyw&utm_campaign=yelp_api_v3&utm_medium=api_v3_business_search&utm_source=1oh4LhpLWuJDqe_L_DZdyw,764,[],"tradamerican,pubs",yoem-KW_Jln0LqsdLwLeUQ
The Cellar,42.36947,-71.1109199,False,02138,Cambridge,MA,$$,4.0,https://www.yelp.com/biz/the-cellar-cambridge?adjust_creative=1oh4LhpLWuJDqe_L_DZdyw&utm_campaign=yelp_api_v3&utm_medium=api_v3_business_search&utm_source=1oh4LhpLWuJDqe_L_DZdyw,256,[],"newamerican,bars",UtS03G9OuSNuEtm-lHcf7w
Moody's Falafel Palace,42.365425260234,-71.105748976123,False,02139,Cambridge,MA,$,3.5,https://www.yelp.com/biz/moodys-falafel-palace-cambridge?adjust_creative=1oh4LhpLWuJDqe_L_DZdyw&utm_campaign=yelp_api_v3&utm_medium=api_v3_business_search&utm_source=1oh4LhpLWuJDqe_L_DZdyw,531,[],"mideastern,falafel,vegetarian",9qCjkJvgnpzOjKLodDEMxw
Rangzen Tibetan Place,42.364167,-71.102964,False,02139,Cambridge,MA,$$,4.0,https://www.yelp.com/biz/rangzen-tibetan-place-cambridge-2?adjust_creative=1oh4LhpLWuJDqe_L_DZdyw&utm_campaign=yelp_api_v3&utm_medium=api_v3_business_search&utm_source=1oh4LhpLWuJDqe_L_DZdyw,371,"['pickup', 'delivery']","asianfusion,bars",HxegWRjhi7m73mXRI8qQIg
ZuZu,42.363774,-71.10144,False,02139,Cambridge,MA,$$,3.5,https://www.yelp.com/biz/zuzu-cambridge?adjust_creative=1oh4LhpLWuJDqe_L_DZdyw&utm_campaign=yelp_api_v3&utm_medium=api_v3_business_search&utm_source=1oh4LhpLWuJDqe_L_DZdyw,300,"['delivery', 'restaurant_reservation']","mediterranean,breakfast_brunch,newamerican",GLP0_Rs2y4Q0Gxk7r1dddQ
City Streets Restaurant,42.386419,-71.20389,False,02452,Waltham,MA,$$,4.0,https://www.yelp.com/biz/city-streets-restaurant-waltham-2?adjust_creative=1oh4LhpLWuJDqe_L_DZdyw&utm_campaign=yelp_api_v3&utm_medium=api_v3_business_search&utm_source=1oh4LhpLWuJDqe_L_DZdyw,70,['delivery'],"sportsbars,tradamerican",PsUYM5VJ4rSKCsOYyrWxbQ
The Farm Grill & Rotisserie,42.31575,-71.20979,False,02459,Newton,MA,$$,4.0,https://www.yelp.com/biz/the-farm-grill-and-rotisserie-newton?adjust_creative=1oh4LhpLWuJDqe_L_DZdyw&utm_campaign=yelp_api_v3&utm_medium=api_v3_business_search&utm_source=1oh4LhpLWuJDqe_L_DZdyw,239,[],"greek,mediterranean",vcqSLjbljnkTqXKOgi9q1Q
Comella's,42.3492024,-71.2265968,False,02465,Newton,MA,$$,3.5,https://www.yelp.com/biz/comellas-newton?adjust_creative=1oh4LhpLWuJDqe_L_DZdyw&utm_campaign=yelp_api_v3&utm_medium=api_v3_business_search&utm_source=1oh4LhpLWuJDqe_L_DZdyw,120,[],"italian,chicken_wings,pizza",jXPU_jCpEQ3Ni8MHqRs1Wg
Delfino Restaurant,42.28696,-71.12953,False,02131,Roslindale,MA,$$,4.0,https://www.yelp.com/biz/delfino-restaurant-roslindale?adjust_creative=1oh4LhpLWuJDqe_L_DZdyw&utm_campaign=yelp_api_v3&utm_medium=api_v3_business_search&utm_source=1oh4LhpLWuJDqe_L_DZdyw,243,[],italian,5oUOPgwX1fyfCpoy2oqKLA
Tempo,42.3679580688477,-71.2369537353516,False,02453,Waltham,MA,$$$,4.0,https://www.yelp.com/biz/tempo-waltham?adjust_creative=1oh4LhpLWuJDqe_L_DZdyw&utm_campaign=yelp_api_v3&utm_medium=api_v3_business_search&utm_source=1oh4LhpLWuJDqe_L_DZdyw,372,[],"bars,tradamerican",gvdQwBeV6bOCOvTKxVmTcg
Bison County BBQ Bar & Grille,42.37142,-71.23719,False,02453,Waltham,MA,$$,3.5,https://www.yelp.com/biz/bison-county-bbq-bar-and-grille-waltham-2?adjust_creative=1oh4LhpLWuJDqe_L_DZdyw&utm_campaign=yelp_api_v3&utm_medium=api_v3_business_search&utm_source=1oh4LhpLWuJDqe_L_DZdyw,335,[],"bbq,sportsbars,chicken_wings",X0-4QinxqDweGOWMKsb9bA
Margaritas Mexican Restaurant,42.3725457,-71.2368527,False,02453,Waltham,MA,$$,2.5,https://www.yelp.com/biz/margaritas-mexican-restaurant-waltham?adjust_creative=1oh4LhpLWuJDqe_L_DZdyw&utm_campaign=yelp_api_v3&utm_medium=api_v3_business_search&utm_source=1oh4LhpLWuJDqe_L_DZdyw,386,"['delivery', 'pickup']","mexican,bars",JHYOusJBXe4wW33oJoEtzw
Not Your Average Joe's,42.4159607266188,-71.1538175619494,False,02476,Arlington,MA,$$,3.5,https://www.yelp.com/biz/not-your-average-joes-arlington?adjust_creative=1oh4LhpLWuJDqe_L_DZdyw&utm_campaign=yelp_api_v3&utm_medium=api_v3_business_search&utm_source=1oh4LhpLWuJDqe_L_DZdyw,214,['delivery'],newamerican,mlUbNTKVrPc4UbesjY7mbQ
Pasha,42.4161071,-71.1543642,False,02476,Arlington,MA,$$,3.5,https://www.yelp.com/biz/pasha-arlington?adjust_creative=1oh4LhpLWuJDqe_L_DZdyw&utm_campaign=yelp_api_v3&utm_medium=api_v3_business_search&utm_source=1oh4LhpLWuJDqe_L_DZdyw,176,[],"turkish,mediterranean",HAF1_8TLXzea-2aXidpKNQ
Biagio Ristorante & Bar,42.3738699,-71.23708,False,02453,Waltham,MA,$$$,3.0,https://www.yelp.com/biz/biagio-ristorante-and-bar-waltham?adjust_creative=1oh4LhpLWuJDqe_L_DZdyw&utm_campaign=yelp_api_v3&utm_medium=api_v3_business_search&utm_source=1oh4LhpLWuJDqe_L_DZdyw,189,[],"italian,bars",daDNnPM1VGJzymFw90-CDA
Tryst,42.4162307744037,-71.1553018387667,False,02476,Arlington,MA,$$,3.5,https://www.yelp.com/biz/tryst-arlington?adjust_creative=1oh4LhpLWuJDqe_L_DZdyw&utm_campaign=yelp_api_v3&utm_medium=api_v3_business_search&utm_source=1oh4LhpLWuJDqe_L_DZdyw,275,[],newamerican,8XH25e94Tf8UNzSr-OWHeQ
Applebee's Grill + Bar,42.326073,-71.063107,False,02125,Dorchester,MA,$$,2.5,https://www.yelp.com/biz/applebees-grill-bar-dorchester?adjust_creative=1oh4LhpLWuJDqe_L_DZdyw&utm_campaign=yelp_api_v3&utm_medium=api_v3_business_search&utm_source=1oh4LhpLWuJDqe_L_DZdyw,132,[],"sportsbars,burgers,tradamerican",eqr5t-Py3oOhIuukz27dEA
Scutra Restaurant,42.4190222471952,-71.1577854305506,False,02474,Arlington,MA,$$$,3.5,https://www.yelp.com/biz/scutra-restaurant-arlington?adjust_creative=1oh4LhpLWuJDqe_L_DZdyw&utm_campaign=yelp_api_v3&utm_medium=api_v3_business_search&utm_source=1oh4LhpLWuJDqe_L_DZdyw,178,['restaurant_reservation'],"modern_european,newamerican,seafood",TbidSY0CNknTW1WEqK33WA
Demo's,42.381458,-71.236906,False,02452,Waltham,MA,$,3.0,https://www.yelp.com/biz/demos-waltham?adjust_creative=1oh4LhpLWuJDqe_L_DZdyw&utm_campaign=yelp_api_v3&utm_medium=api_v3_business_search&utm_source=1oh4LhpLWuJDqe_L_DZdyw,73,['delivery'],"greek,mediterranean",Of0s9Bp9sxRIrfS6_WsuXw
Chateau Restaurant,42.3783249,-71.239395,False,02451,Waltham,MA,$$,3.0,https://www.yelp.com/biz/chateau-restaurant-waltham?adjust_creative=1oh4LhpLWuJDqe_L_DZdyw&utm_campaign=yelp_api_v3&utm_medium=api_v3_business_search&utm_source=1oh4LhpLWuJDqe_L_DZdyw,244,"['delivery', 'pickup']",italian,IGbKO5xKMZrTsPtmDYaLwQ
Sofia Italian Steakhouse,42.270801,-71.17173,False,02132,West Roxbury,MA,$$$,4.0,https://www.yelp.com/biz/sofia-italian-steakhouse-west-roxbury-2?adjust_creative=1oh4LhpLWuJDqe_L_DZdyw&utm_campaign=yelp_api_v3&utm_medium=api_v3_business_search&utm_source=1oh4LhpLWuJDqe_L_DZdyw,234,[],"steak,italian",nlZghMJ6hcu_b7gzwzYdxQ
Fuji Steak House,42.2819103,-71.2359151,False,02492,Needham,MA,$$,3.0,https://www.yelp.com/biz/fuji-steak-house-needham?adjust_creative=1oh4LhpLWuJDqe_L_DZdyw&utm_campaign=yelp_api_v3&utm_medium=api_v3_business_search&utm_source=1oh4LhpLWuJDqe_L_DZdyw,125,"['delivery', 'pickup']","japanese,steak,sushi",frTp4FF8-pxlAUREcMpStA
Dedham Square Coffeehouse,42.2481431,-71.1726205,False,02026,Dedham,MA,$,3.5,https://www.yelp.com/biz/dedham-square-coffeehouse-dedham?adjust_creative=1oh4LhpLWuJDqe_L_DZdyw&utm_campaign=yelp_api_v3&utm_medium=api_v3_business_search&utm_source=1oh4LhpLWuJDqe_L_DZdyw,55,[],"coffee,bars,internetcafe",zSP2I7sQR3rWQUdo4LBNVQ
Rincon Caribeno Restaurant,42.2556133568287,-71.1209050565958,False,02136,Hyde Park,MA,$$,3.5,https://www.yelp.com/biz/rincon-caribeno-restaurant-hyde-park?adjust_creative=1oh4LhpLWuJDqe_L_DZdyw&utm_campaign=yelp_api_v3&utm_medium=api_v3_business_search&utm_source=1oh4LhpLWuJDqe_L_DZdyw,57,"['pickup', 'delivery']","cocktailbars,dominican,latin",l7iATT41a30rJDp5U_EmQg
Fairmount Grille,42.2545537,-71.1202539,False,02136,Hyde Park,MA,$$,4.0,https://www.yelp.com/biz/the-fairmount-grille-hyde-park?adjust_creative=1oh4LhpLWuJDqe_L_DZdyw&utm_campaign=yelp_api_v3&utm_medium=api_v3_business_search&utm_source=1oh4LhpLWuJDqe_L_DZdyw,153,"['pickup', 'delivery']","newamerican,tradamerican,bars",OwpCK2Krj4qxvsA5672HOQ
Amrheins,42.34191,-71.05522,False,02127,Boston,MA,$$,3.5,https://www.yelp.com/biz/amrheins-boston-2?adjust_creative=1oh4LhpLWuJDqe_L_DZdyw&utm_campaign=yelp_api_v3&utm_medium=api_v3_business_search&utm_source=1oh4LhpLWuJDqe_L_DZdyw,415,[],"newamerican,bars",loRoCo53b30zgHZ_mIMatQ
Nebo Cucina & Enoteca,42.3538387463177,-71.0529921895493,False,02210,Boston,MA,$$$,3.5,https://www.yelp.com/biz/nebo-cucina-and-enoteca-boston?adjust_creative=1oh4LhpLWuJDqe_L_DZdyw&utm_campaign=yelp_api_v3&utm_medium=api_v3_business_search&utm_source=1oh4LhpLWuJDqe_L_DZdyw,339,[],"italian,gluten_free,pizza",UHSgwkHN_4IxeHa3pcb5Pg
Durgin-Park Restaurant,42.3602285,-71.0547722,False,02109,Boston,MA,$$,3.0,https://www.yelp.com/biz/durgin-park-restaurant-boston-2?adjust_creative=1oh4LhpLWuJDqe_L_DZdyw&utm_campaign=yelp_api_v3&utm_medium=api_v3_business_search&utm_source=1oh4LhpLWuJDqe_L_DZdyw,527,[],"seafood,steak,bars",OkWWg21Tln2nd7wBgURtJQ
Bostonia Public House,42.359213,-71.054296,False,02109,Boston,MA,$$,4.0,https://www.yelp.com/biz/bostonia-public-house-boston-4?adjust_creative=1oh4LhpLWuJDqe_L_DZdyw&utm_campaign=yelp_api_v3&utm_medium=api_v3_business_search&utm_source=1oh4LhpLWuJDqe_L_DZdyw,1043,[],"newamerican,musicvenues,cocktailbars",xZ22_0eJOgaiKqIhoSHrPw
Moulton's Seafood Restaurant,42.4164188,-71.1186594,False,02155,Medford,MA,$$,4.0,https://www.yelp.com/biz/moultons-seafood-restaurant-medford?adjust_creative=1oh4LhpLWuJDqe_L_DZdyw&utm_campaign=yelp_api_v3&utm_medium=api_v3_business_search&utm_source=1oh4LhpLWuJDqe_L_DZdyw,117,[],seafood,ttbt7fmqbU4YdT1jPXiBwg
Bacco,42.3641777038574,-71.0553817749023,False,02113,Boston,MA,$$,3.5,https://www.yelp.com/biz/bacco-boston?adjust_creative=1oh4LhpLWuJDqe_L_DZdyw&utm_campaign=yelp_api_v3&utm_medium=api_v3_business_search&utm_source=1oh4LhpLWuJDqe_L_DZdyw,298,[],"italian,wine_bars,southern",vQNe7TD_QDpGtGbkaAqi8Q
Ristorante Euno,42.3644332885742,-71.0553512573242,False,02113,Boston,MA,$$$,4.0,https://www.yelp.com/biz/ristorante-euno-boston?adjust_creative=1oh4LhpLWuJDqe_L_DZdyw&utm_campaign=yelp_api_v3&utm_medium=api_v3_business_search&utm_source=1oh4LhpLWuJDqe_L_DZdyw,224,[],"italian,mediterranean,pastashops",Mgkv-Kr_tcANDPYnV4PqQw
Benevento's,42.3642807006836,-71.0553588867188,False,02113,Boston,MA,$$,4.0,https://www.yelp.com/biz/beneventos-boston?adjust_creative=1oh4LhpLWuJDqe_L_DZdyw&utm_campaign=yelp_api_v3&utm_medium=api_v3_business_search&utm_source=1oh4LhpLWuJDqe_L_DZdyw,395,[],"italian,pizza",ndO6w5EoVZI1-e_Adl-ltw
La Galleria 33,42.3646531999111,-71.0554544627666,False,02113,Boston,MA,$$,3.5,https://www.yelp.com/biz/la-galleria-33-boston?adjust_creative=1oh4LhpLWuJDqe_L_DZdyw&utm_campaign=yelp_api_v3&utm_medium=api_v3_business_search&utm_source=1oh4LhpLWuJDqe_L_DZdyw,327,[],italian,wVHoVfbaIPvlP1sCzOuaZg
Al Dente Restaurant,42.36422,-71.05536,False,02113,Boston,MA,$$,4.0,https://www.yelp.com/biz/al-dente-restaurant-boston?adjust_creative=1oh4LhpLWuJDqe_L_DZdyw&utm_campaign=yelp_api_v3&utm_medium=api_v3_business_search&utm_source=1oh4LhpLWuJDqe_L_DZdyw,954,"['delivery', 'pickup']","italian,bakeries",pOEHpNa4B6oesmr5ltiv8A
Ristorante Fiore,42.3635822,-71.0549324,False,02113,Boston,MA,$$$,3.5,https://www.yelp.com/biz/ristorante-fiore-boston-2?adjust_creative=1oh4LhpLWuJDqe_L_DZdyw&utm_campaign=yelp_api_v3&utm_medium=api_v3_business_search&utm_source=1oh4LhpLWuJDqe_L_DZdyw,554,[],"italian,wine_bars",PBt_sana68L9ZjgQzeJ7zw
Pagliucas,42.3637428283691,-71.0549621582031,False,02113,Boston,MA,$$,3.0,https://www.yelp.com/biz/pagliucas-boston-2?adjust_creative=1oh4LhpLWuJDqe_L_DZdyw&utm_campaign=yelp_api_v3&utm_medium=api_v3_business_search&utm_source=1oh4LhpLWuJDqe_L_DZdyw,285,[],italian,pW-9K9V5KQWxd-teAtcjlQ
Bricco,42.36309,-71.05495,False,02113,Boston,MA,$$$,4.0,https://www.yelp.com/biz/bricco-boston-6?adjust_creative=1oh4LhpLWuJDqe_L_DZdyw&utm_campaign=yelp_api_v3&utm_medium=api_v3_business_search&utm_source=1oh4LhpLWuJDqe_L_DZdyw,812,[],wine_bars,55PGG2U1z-q7Z694F-B-_w
Bistro 5,42.4213865,-71.1324138,False,02155,Medford,MA,$$$,4.5,https://www.yelp.com/biz/bistro-5-medford?adjust_creative=1oh4LhpLWuJDqe_L_DZdyw&utm_campaign=yelp_api_v3&utm_medium=api_v3_business_search&utm_source=1oh4LhpLWuJDqe_L_DZdyw,225,[],"italian,modern_european",6t1Y9dPhbGLEpGEecV9wdA
Salvatore's Restaurant,42.4187248,-71.1115534,False,02155,Medford,MA,$$,3.0,https://www.yelp.com/biz/salvatores-restaurant-medford?adjust_creative=1oh4LhpLWuJDqe_L_DZdyw&utm_campaign=yelp_api_v3&utm_medium=api_v3_business_search&utm_source=1oh4LhpLWuJDqe_L_DZdyw,209,[],"italian,bars",whrxNVNwY3BLb2SYPWsX0A
Vintage Restaurant and Lounge,42.3577,-71.05302,False,02110,Boston,MA,$$,3.5,https://www.yelp.com/biz/vintage-restaurant-and-lounge-boston?adjust_creative=1oh4LhpLWuJDqe_L_DZdyw&utm_campaign=yelp_api_v3&utm_medium=api_v3_business_search&utm_source=1oh4LhpLWuJDqe_L_DZdyw,129,['delivery'],"lounges,newamerican",mI7qw74vuPgf4LJWH3M2oA
Finn McCool's Boston,42.3567426,-71.0519535,False,02110,Boston,MA,$$,4.0,https://www.yelp.com/biz/finn-mccools-boston-boston?adjust_creative=1oh4LhpLWuJDqe_L_DZdyw&utm_campaign=yelp_api_v3&utm_medium=api_v3_business_search&utm_source=1oh4LhpLWuJDqe_L_DZdyw,20,"['delivery', 'pickup']",pubs,PAdsmCb-T8yzrLf137yCVg
Bastille Kitchen,42.349462,-71.0501609,False,02210,Boston,MA,$$$,3.5,https://www.yelp.com/biz/bastille-kitchen-boston?adjust_creative=1oh4LhpLWuJDqe_L_DZdyw&utm_campaign=yelp_api_v3&utm_medium=api_v3_business_search&utm_source=1oh4LhpLWuJDqe_L_DZdyw,244,[],"bars,french",tFjWlJCDpANBRAPSMc5Cew
Granary Tavern,42.3587303,-71.052597,False,02109,Boston,MA,$$,3.5,https://www.yelp.com/biz/granary-tavern-boston?adjust_creative=1oh4LhpLWuJDqe_L_DZdyw&utm_campaign=yelp_api_v3&utm_medium=api_v3_business_search&utm_source=1oh4LhpLWuJDqe_L_DZdyw,561,[],"newamerican,pubs",CWqL2TEq_V9tipCj-X-GoQ
Meritage Restaurant,42.3562283,-71.0505545,False,02110,Boston,MA,$$$$,4.0,https://www.yelp.com/biz/meritage-restaurant-boston-2?adjust_creative=1oh4LhpLWuJDqe_L_DZdyw&utm_campaign=yelp_api_v3&utm_medium=api_v3_business_search&utm_source=1oh4LhpLWuJDqe_L_DZdyw,293,[],"newamerican,seafood,wine_bars",6H313b3O6gTULpR7fV2FsQ
Sportello,42.35067,-71.04846,False,02210,Boston,MA,$$$,4.0,https://www.yelp.com/biz/sportello-boston?adjust_creative=1oh4LhpLWuJDqe_L_DZdyw&utm_campaign=yelp_api_v3&utm_medium=api_v3_business_search&utm_source=1oh4LhpLWuJDqe_L_DZdyw,765,"['delivery', 'pickup']",italian,a1MOjLJXAIVmYZ2cG5gKCw
Villa Francesca,42.3634449,-71.0546418,False,02109,Boston,MA,$$$,3.0,https://www.yelp.com/biz/villa-francesca-boston?adjust_creative=1oh4LhpLWuJDqe_L_DZdyw&utm_campaign=yelp_api_v3&utm_medium=api_v3_business_search&utm_source=1oh4LhpLWuJDqe_L_DZdyw,286,['delivery'],"italian,wine_bars,seafood",vxkOVmhReRa4XYfAT1hMxA
Barking Crab,42.3534472149055,-71.0486004152558,False,02210,Boston,MA,$$,3.0,https://www.yelp.com/biz/barking-crab-boston-2?adjust_creative=1oh4LhpLWuJDqe_L_DZdyw&utm_campaign=yelp_api_v3&utm_medium=api_v3_business_search&utm_source=1oh4LhpLWuJDqe_L_DZdyw,1891,['delivery'],"seafood,beerbar",oz882XuZCxajKo64Opgq_Q
Legal Sea Foods,42.3595530399974,-71.0510174185038,False,02109,Boston,MA,$$$,3.5,https://www.yelp.com/biz/legal-sea-foods-boston-38?adjust_creative=1oh4LhpLWuJDqe_L_DZdyw&utm_campaign=yelp_api_v3&utm_medium=api_v3_business_search&utm_source=1oh4LhpLWuJDqe_L_DZdyw,1142,[],"seafood,bars,salad",VDmV3tPEQqFxzqQJRJazNw
Vinoteca di Monica,42.3633988,-71.0543352,False,02109,Boston,MA,$$$,3.5,https://www.yelp.com/biz/vinoteca-di-monica-boston-2?adjust_creative=1oh4LhpLWuJDqe_L_DZdyw&utm_campaign=yelp_api_v3&utm_medium=api_v3_business_search&utm_source=1oh4LhpLWuJDqe_L_DZdyw,333,[],"italian,wine_bars,seafood",Hnx34LxtfW4XV0gZ18zMBg
Limoncello Ristorante,42.3633328825235,-71.0539074987173,False,02113,Boston,MA,$$,4.0,https://www.yelp.com/biz/limoncello-ristorante-boston-2?adjust_creative=1oh4LhpLWuJDqe_L_DZdyw&utm_campaign=yelp_api_v3&utm_medium=api_v3_business_search&utm_source=1oh4LhpLWuJDqe_L_DZdyw,568,[],"italian,wine_bars",LGNpVs8cRBllNVml8wI0Vg
The Daily Catch,42.3541435451239,-71.0480838041102,False,02210,Boston,MA,$$$,3.0,https://www.yelp.com/biz/the-daily-catch-boston-4?adjust_creative=1oh4LhpLWuJDqe_L_DZdyw&utm_campaign=yelp_api_v3&utm_medium=api_v3_business_search&utm_source=1oh4LhpLWuJDqe_L_DZdyw,389,"['delivery', 'pickup']","seafood,italian,cocktailbars",cCAAA6871M0K_EHZidkKmQ
Ristorante Saraceno,42.36398,-71.05455,False,02113,Boston,MA,$$,3.5,https://www.yelp.com/biz/ristorante-saraceno-boston?adjust_creative=1oh4LhpLWuJDqe_L_DZdyw&utm_campaign=yelp_api_v3&utm_medium=api_v3_business_search&utm_source=1oh4LhpLWuJDqe_L_DZdyw,420,[],"italian,seafood,desserts",JzW-uJwi7cGd0c_VS8wvBQ
Carmelina's,42.36388,-71.05415,False,02113,Boston,MA,$$,4.5,https://www.yelp.com/biz/carmelinas-boston-2?adjust_creative=1oh4LhpLWuJDqe_L_DZdyw&utm_campaign=yelp_api_v3&utm_medium=api_v3_business_search&utm_source=1oh4LhpLWuJDqe_L_DZdyw,1223,['restaurant_reservation'],italian,kP1b-7BO_VhWk_0tvuA_tw
The Daily Catch,42.36406,-71.05397,False,02113,Boston,MA,$$,4.0,https://www.yelp.com/biz/the-daily-catch-boston?adjust_creative=1oh4LhpLWuJDqe_L_DZdyw&utm_campaign=yelp_api_v3&utm_medium=api_v3_business_search&utm_source=1oh4LhpLWuJDqe_L_DZdyw,1451,[],"italian,seafood,coffee",uXOVFQraz1va1TrtgiqYTg
The Reef,42.3597711,-71.0507385,False,02110,Boston,MA,$$,3.0,https://www.yelp.com/biz/the-reef-boston?adjust_creative=1oh4LhpLWuJDqe_L_DZdyw&utm_campaign=yelp_api_v3&utm_medium=api_v3_business_search&utm_source=1oh4LhpLWuJDqe_L_DZdyw,26,[],"bars,tradamerican",Pm-PU6CldkzBm4ci4r66LQ
Artu,42.3641,-71.05374,False,02113,Boston,MA,$$,3.5,https://www.yelp.com/biz/artu-boston-2?adjust_creative=1oh4LhpLWuJDqe_L_DZdyw&utm_campaign=yelp_api_v3&utm_medium=api_v3_business_search&utm_source=1oh4LhpLWuJDqe_L_DZdyw,331,"['delivery', 'pickup']","italian,diners,wine_bars",m5jCNOs6QG75lkzLhMMryA
Mamma Maria,42.364081,-71.053303,False,02113,Boston,MA,$$$,4.0,https://www.yelp.com/biz/mamma-maria-boston?adjust_creative=1oh4LhpLWuJDqe_L_DZdyw&utm_campaign=yelp_api_v3&utm_medium=api_v3_business_search&utm_source=1oh4LhpLWuJDqe_L_DZdyw,554,[],italian,uBXOc3uxpCSmd22P6LOeew
North Street Grille,42.3633987875275,-71.0525562839306,False,02113,Boston,MA,$$,4.0,https://www.yelp.com/biz/north-street-grille-boston-2?adjust_creative=1oh4LhpLWuJDqe_L_DZdyw&utm_campaign=yelp_api_v3&utm_medium=api_v3_business_search&utm_source=1oh4LhpLWuJDqe_L_DZdyw,750,[],"breakfast_brunch,newamerican",M0Z57IL0dlzpU6QCez0wGA
Panza,42.3646699,-71.05382,False,02113,Boston,MA,$$,4.0,https://www.yelp.com/biz/panza-boston?adjust_creative=1oh4LhpLWuJDqe_L_DZdyw&utm_campaign=yelp_api_v3&utm_medium=api_v3_business_search&utm_source=1oh4LhpLWuJDqe_L_DZdyw,1161,[],"italian,wine_bars,salad",T4nEmSQNeTKnNgcHpnvH0A
Chart House,42.3601658329676,-71.0494595021146,False,02110,Boston,MA,$$$,3.0,https://www.yelp.com/biz/chart-house-boston?adjust_creative=1oh4LhpLWuJDqe_L_DZdyw&utm_campaign=yelp_api_v3&utm_medium=api_v3_business_search&utm_source=1oh4LhpLWuJDqe_L_DZdyw,572,"['delivery', 'pickup']","seafood,steak,venues",OFHWBXs5-UyEYf0-MrFDUw
Giacomo's Ristorante,42.36458,-71.05344,False,02113,Boston,MA,$$,4.0,https://www.yelp.com/biz/giacomos-ristorante-boston?adjust_creative=1oh4LhpLWuJDqe_L_DZdyw&utm_campaign=yelp_api_v3&utm_medium=api_v3_business_search&utm_source=1oh4LhpLWuJDqe_L_DZdyw,3090,[],"italian,wine_bars,seafood",2u_w3rthRzR2uEihW5BC4A
Joe's American Bar & Grill,42.3623159,-71.0508594,False,02110,Boston,MA,$$,3.0,https://www.yelp.com/biz/joes-american-bar-and-grill-boston?adjust_creative=1oh4LhpLWuJDqe_L_DZdyw&utm_campaign=yelp_api_v3&utm_medium=api_v3_business_search&utm_source=1oh4LhpLWuJDqe_L_DZdyw,464,[],"burgers,tradamerican,cocktailbars",SvMVqEWYJXPOr6vJlRYnrg
Cantina Italiana,42.36504,-71.0534799,False,02113,Boston,MA,$$,4.0,https://www.yelp.com/biz/cantina-italiana-boston?adjust_creative=1oh4LhpLWuJDqe_L_DZdyw&utm_campaign=yelp_api_v3&utm_medium=api_v3_business_search&utm_source=1oh4LhpLWuJDqe_L_DZdyw,439,[],italian,ZZoP396jgh6zK7PdZbHfPg
Strega,42.3650488,-71.0531742,False,02113,Boston,MA,$$$,3.5,https://www.yelp.com/biz/strega-boston?adjust_creative=1oh4LhpLWuJDqe_L_DZdyw&utm_campaign=yelp_api_v3&utm_medium=api_v3_business_search&utm_source=1oh4LhpLWuJDqe_L_DZdyw,455,[],italian,boK3cyDPLmwNUV97doMCNA
La Summa,42.36468,-71.05255,False,02113,Boston,MA,$$,4.0,https://www.yelp.com/biz/la-summa-boston?adjust_creative=1oh4LhpLWuJDqe_L_DZdyw&utm_campaign=yelp_api_v3&utm_medium=api_v3_business_search&utm_source=1oh4LhpLWuJDqe_L_DZdyw,298,[],"italian,desserts,salad",paMwLc8H3QUaGTkBteUT9g
Strega Waterfront,42.353216,-71.045152,False,02210,Boston,MA,$$$,3.5,https://www.yelp.com/biz/strega-waterfront-boston?adjust_creative=1oh4LhpLWuJDqe_L_DZdyw&utm_campaign=yelp_api_v3&utm_medium=api_v3_business_search&utm_source=1oh4LhpLWuJDqe_L_DZdyw,505,[],italian,4jkGZhbMPUg3Talazishtg
MJ O'Connor's,42.34642,-71.04266,False,02210,Boston,MA,$$,3.0,https://www.yelp.com/biz/mj-o-connors-boston-2?adjust_creative=1oh4LhpLWuJDqe_L_DZdyw&utm_campaign=yelp_api_v3&utm_medium=api_v3_business_search&utm_source=1oh4LhpLWuJDqe_L_DZdyw,192,[],"tradamerican,cocktailbars",3IRA159ZbwTAEL3WqcZZiA
Legal Test Kitchen,42.348585,-71.039075,False,02210,Boston,MA,$$,3.5,https://www.yelp.com/biz/legal-test-kitchen-boston?adjust_creative=1oh4LhpLWuJDqe_L_DZdyw&utm_campaign=yelp_api_v3&utm_medium=api_v3_business_search&utm_source=1oh4LhpLWuJDqe_L_DZdyw,738,[],"newamerican,seafood,cocktailbars",UYEP_G4fYVxasowdgd5Icg
75 on Liberty Wharf,42.3491051075898,-71.0388948353222,False,02210,Boston,MA,$$,3.0,https://www.yelp.com/biz/75-on-liberty-wharf-boston?adjust_creative=1oh4LhpLWuJDqe_L_DZdyw&utm_campaign=yelp_api_v3&utm_medium=api_v3_business_search&utm_source=1oh4LhpLWuJDqe_L_DZdyw,220,[],"newamerican,desserts,breakfast_brunch",25sny_QPRSFNxCPqu1oRqw
Del Frisco's Double Eagle Steakhouse,42.3489088651761,-71.0384945153269,False,02210,Boston,MA,$$$$,3.5,https://www.yelp.com/biz/del-friscos-double-eagle-steakhouse-boston-4?adjust_creative=1oh4LhpLWuJDqe_L_DZdyw&utm_campaign=yelp_api_v3&utm_medium=api_v3_business_search&utm_source=1oh4LhpLWuJDqe_L_DZdyw,859,[],"seafood,steak,tradamerican",T1wflZohQRZVb9SKQapfFA
No Name Restaurant,42.3502037,-71.0384582,False,02210,South Boston,MA,$$,2.5,https://www.yelp.com/biz/no-name-restaurant-south-boston-2?adjust_creative=1oh4LhpLWuJDqe_L_DZdyw&utm_campaign=yelp_api_v3&utm_medium=api_v3_business_search&utm_source=1oh4LhpLWuJDqe_L_DZdyw,894,[],seafood,REmBxSRBi_FDgwsTnjl3hA
Legal Harborside,42.34865,-71.03779,False,02210,Boston,MA,$$$,3.5,https://www.yelp.com/biz/legal-harborside-boston-6?adjust_creative=1oh4LhpLWuJDqe_L_DZdyw&utm_campaign=yelp_api_v3&utm_medium=api_v3_business_search&utm_source=1oh4LhpLWuJDqe_L_DZdyw,1184,[],"seafood,tradamerican,wine_bars",et8Pwzjy2vjRhETAgEZ1Lg
Yankee Lobster,42.347921583679,-71.035987943405,False,02210,Boston,MA,$$,4.0,https://www.yelp.com/biz/yankee-lobster-boston?adjust_creative=1oh4LhpLWuJDqe_L_DZdyw&utm_campaign=yelp_api_v3&utm_medium=api_v3_business_search&utm_source=1oh4LhpLWuJDqe_L_DZdyw,1443,[],seafood,h4Un3Tw0yKn7uCLseO7Bvg
D'Parma Restaurant,42.36935,-71.04032,False,02128,East Boston,MA,$$,4.0,https://www.yelp.com/biz/d-parma-restaurant-east-boston?adjust_creative=1oh4LhpLWuJDqe_L_DZdyw&utm_campaign=yelp_api_v3&utm_medium=api_v3_business_search&utm_source=1oh4LhpLWuJDqe_L_DZdyw,90,[],italian,lLPXuKq9jRU06teLRtUjpA
Italian Express Pizzeria,42.367273879279,-71.035738156977,False,02128,Boston,MA,$$,4.5,https://www.yelp.com/biz/italian-express-pizzeria-boston-2?adjust_creative=1oh4LhpLWuJDqe_L_DZdyw&utm_campaign=yelp_api_v3&utm_medium=api_v3_business_search&utm_source=1oh4LhpLWuJDqe_L_DZdyw,363,[],"italian,pizza",zvKfCAOBzVcxc1HLpoIY8A
KO Pies At the Shipyard,42.364075640365,-71.0316231238073,False,02128,Boston,MA,$$,4.5,https://www.yelp.com/biz/ko-pies-at-the-shipyard-boston?adjust_creative=1oh4LhpLWuJDqe_L_DZdyw&utm_campaign=yelp_api_v3&utm_medium=api_v3_business_search&utm_source=1oh4LhpLWuJDqe_L_DZdyw,265,[],"australian,bars,seafood",wuiDoeKWClLrr2g2LSXA8w
Mi Pueblito Restaurant,42.37904,-71.03989,False,02128,Boston,MA,$$,4.5,https://www.yelp.com/biz/mi-pueblito-restaurant-boston?adjust_creative=1oh4LhpLWuJDqe_L_DZdyw&utm_campaign=yelp_api_v3&utm_medium=api_v3_business_search&utm_source=1oh4LhpLWuJDqe_L_DZdyw,158,[],"mexican,salvadoran,seafood",bgV_tFbmVDKBxZni2my7XA
Rino's Place,42.3780632,-71.0329114,False,02128,Boston,MA,$$,4.0,https://www.yelp.com/biz/rinos-place-boston?adjust_creative=1oh4LhpLWuJDqe_L_DZdyw&utm_campaign=yelp_api_v3&utm_medium=api_v3_business_search&utm_source=1oh4LhpLWuJDqe_L_DZdyw,743,[],italian,OP0xCQM6ih4VEhl2t39Z-g
Ciao! Pizza & Pasta,42.3892518,-71.0409076,False,02150,Chelsea,MA,$$,5.0,https://www.yelp.com/biz/ciao-pizza-and-pasta-chelsea-2?adjust_creative=1oh4LhpLWuJDqe_L_DZdyw&utm_campaign=yelp_api_v3&utm_medium=api_v3_business_search&utm_source=1oh4LhpLWuJDqe_L_DZdyw,490,[],"italian,pizza",yQL8SrSETbbCI1U5esVJQw
Legal Sea Foods,42.361696,-71.017407,False,02128,Boston,MA,$$,3.5,https://www.yelp.com/biz/legal-sea-foods-boston-49?adjust_creative=1oh4LhpLWuJDqe_L_DZdyw&utm_campaign=yelp_api_v3&utm_medium=api_v3_business_search&utm_source=1oh4LhpLWuJDqe_L_DZdyw,359,[],"seafood,breakfast_brunch,sandwiches",sUmsVV0RPP3Wx6MbWZKyIw
Chelsea Station Restaurant Bar & Lounge,42.3946237851425,-71.039215028286,False,02150,Chelsea,MA,$$,4.0,https://www.yelp.com/biz/chelsea-station-restaurant-bar-and-lounge-chelsea?adjust_creative=1oh4LhpLWuJDqe_L_DZdyw&utm_campaign=yelp_api_v3&utm_medium=api_v3_business_search&utm_source=1oh4LhpLWuJDqe_L_DZdyw,181,[],"lounges,newamerican,cocktailbars",kF_0OkW9sTQQNIwQfbDE3Q
Abbondanza Ristorante,42.4075712,-71.0619517,False,02149,Everett,MA,$$,4.0,https://www.yelp.com/biz/abbondanza-ristorante-everett?adjust_creative=1oh4LhpLWuJDqe_L_DZdyw&utm_campaign=yelp_api_v3&utm_medium=api_v3_business_search&utm_source=1oh4LhpLWuJDqe_L_DZdyw,63,[],italian,m2CNfH6HiwqgAW8JiFbqZQ
Mandarin Buffet,42.4046421,-71.0219972,False,02150,Chelsea,MA,$$,3.0,https://www.yelp.com/biz/mandarin-buffet-chelsea?adjust_creative=1oh4LhpLWuJDqe_L_DZdyw&utm_campaign=yelp_api_v3&utm_medium=api_v3_business_search&utm_source=1oh4LhpLWuJDqe_L_DZdyw,66,[],"buffets,chinese,seafood",tox6xX92Lws6IwFvVD8puQ
El Potro Mexican Grill,42.4193088,-71.0799949,False,02148,Malden,MA,$$,4.5,https://www.yelp.com/biz/el-potro-mexican-grill-malden?adjust_creative=1oh4LhpLWuJDqe_L_DZdyw&utm_campaign=yelp_api_v3&utm_medium=api_v3_business_search&utm_source=1oh4LhpLWuJDqe_L_DZdyw,197,[],"mexican,bars",BJXadWOLyGXzly7Iqx4W_g
Oliveira's Restaurant,42.4157,-71.04738,False,02149,Everett,MA,$$,3.5,https://www.yelp.com/biz/oliveiras-restaurant-everett?adjust_creative=1oh4LhpLWuJDqe_L_DZdyw&utm_campaign=yelp_api_v3&utm_medium=api_v3_business_search&utm_source=1oh4LhpLWuJDqe_L_DZdyw,115,"['delivery', 'pickup']","brazilian,steak,lounges",lIDR_8ZuG7WvAaXaavreGg
Nappi's Restaurant,42.4219787,-71.094927,False,02155,Medford,MA,$$,4.0,https://www.yelp.com/biz/nappis-restaurant-medford?adjust_creative=1oh4LhpLWuJDqe_L_DZdyw&utm_campaign=yelp_api_v3&utm_medium=api_v3_business_search&utm_source=1oh4LhpLWuJDqe_L_DZdyw,147,[],italian,eWzMs5B_Eht6i5zF0CrXFg
Shanghai Moon,42.4229093066013,-71.0916947945952,False,02155,Medford,MA,$$,3.5,https://www.yelp.com/biz/shanghai-moon-medford?adjust_creative=1oh4LhpLWuJDqe_L_DZdyw&utm_campaign=yelp_api_v3&utm_medium=api_v3_business_search&utm_source=1oh4LhpLWuJDqe_L_DZdyw,62,"['pickup', 'delivery']","japanese,sportsbars,chinese",3bkcl_O4A8jgvZNjf8GptQ
Sichuan Taste,42.42436,-71.0680299,False,02184,Malden,MA,$$,3.5,https://www.yelp.com/biz/sichuan-taste-malden?adjust_creative=1oh4LhpLWuJDqe_L_DZdyw&utm_campaign=yelp_api_v3&utm_medium=api_v3_business_search&utm_source=1oh4LhpLWuJDqe_L_DZdyw,92,"['pickup', 'delivery']","seafood,szechuan,desserts",4DJj4NtOHcnojgav5OyaOg
Tavolo,42.283936680018,-71.064666135917,False,02124,Dorchester,MA,$$,3.5,https://www.yelp.com/biz/tavolo-dorchester?adjust_creative=1oh4LhpLWuJDqe_L_DZdyw&utm_campaign=yelp_api_v3&utm_medium=api_v3_business_search&utm_source=1oh4LhpLWuJDqe_L_DZdyw,184,[],"italian,pizza,pastashops",NsE1oIckP5CcmezF2UzMag
Prime Pizza,42.270172,-71.065872,False,02186,Milton,MA,$$,3.0,https://www.yelp.com/biz/prime-pizza-milton?adjust_creative=1oh4LhpLWuJDqe_L_DZdyw&utm_campaign=yelp_api_v3&utm_medium=api_v3_business_search&utm_source=1oh4LhpLWuJDqe_L_DZdyw,155,['pickup'],"newamerican,seafood,tradamerican",7hJ2pItzMoAJQKdvbAmdpw
The Blarney Stone,42.2993708,-71.0606029,False,02122,Dorchester,MA,$$,4.0,https://www.yelp.com/biz/the-blarney-stone-dorchester?adjust_creative=1oh4LhpLWuJDqe_L_DZdyw&utm_campaign=yelp_api_v3&utm_medium=api_v3_business_search&utm_source=1oh4LhpLWuJDqe_L_DZdyw,195,[],"bars,newamerican",CRV5pbiOC_EXCqQrRZ98BA
Burke's Seafood,42.27398,-71.024434,False,02171,Quincy,MA,$$,4.5,https://www.yelp.com/biz/burkes-seafood-quincy?adjust_creative=1oh4LhpLWuJDqe_L_DZdyw&utm_campaign=yelp_api_v3&utm_medium=api_v3_business_search&utm_source=1oh4LhpLWuJDqe_L_DZdyw,225,[],"seafood,seafoodmarkets,fishnchips",WGPQZMXwhFPgN6D_fk8t4Q
Abby Park,42.2582666894027,-71.0403686531032,False,02186,Milton,MA,$$$,3.5,https://www.yelp.com/biz/abby-park-milton?adjust_creative=1oh4LhpLWuJDqe_L_DZdyw&utm_campaign=yelp_api_v3&utm_medium=api_v3_business_search&utm_source=1oh4LhpLWuJDqe_L_DZdyw,318,[],"newamerican,salad,breakfast_brunch",x2C2q4DtrAWAIS6ZyJZjuA
The Fat Cat,42.2498573362827,-71.0019618272781,False,02169,Quincy,MA,$$,4.0,https://www.yelp.com/biz/the-fat-cat-quincy?adjust_creative=1oh4LhpLWuJDqe_L_DZdyw&utm_campaign=yelp_api_v3&utm_medium=api_v3_business_search&utm_source=1oh4LhpLWuJDqe_L_DZdyw,1392,[],newamerican,zrCMsPgOciEc5wNbCpLI3Q
Cagney's Restaurant & Pub,42.2500489,-70.9942377,False,02169,Quincy,MA,$$,3.5,https://www.yelp.com/biz/cagneys-restaurant-and-pub-quincy?adjust_creative=1oh4LhpLWuJDqe_L_DZdyw&utm_campaign=yelp_api_v3&utm_medium=api_v3_business_search&utm_source=1oh4LhpLWuJDqe_L_DZdyw,143,[],"tradamerican,pubs",6pNibxhQbAqQcEMr2Jy1Ew
Gennaro's Eatery,42.242657,-70.996002,False,02169,Quincy,MA,$$,4.0,https://www.yelp.com/biz/gennaros-eatery-quincy?adjust_creative=1oh4LhpLWuJDqe_L_DZdyw&utm_campaign=yelp_api_v3&utm_medium=api_v3_business_search&utm_source=1oh4LhpLWuJDqe_L_DZdyw,377,[],italian,4EcQBaxs-yxHRJjogbeFzQ
Webster's Eatery,42.2427805,-70.9956154,False,02169,Quincy,MA,$$,3.5,https://www.yelp.com/biz/websters-eatery-quincy?adjust_creative=1oh4LhpLWuJDqe_L_DZdyw&utm_campaign=yelp_api_v3&utm_medium=api_v3_business_search&utm_source=1oh4LhpLWuJDqe_L_DZdyw,39,[],"mideastern,mediterranean",CmdVh1cYn536aa_1gjABDA
Coop's Bar & Grille,42.2475812,-70.9800441,False,02169,Quincy,MA,$$,4.0,https://www.yelp.com/biz/coops-bar-and-grille-quincy?adjust_creative=1oh4LhpLWuJDqe_L_DZdyw&utm_campaign=yelp_api_v3&utm_medium=api_v3_business_search&utm_source=1oh4LhpLWuJDqe_L_DZdyw,138,[],"bars,pizza,newamerican",8oofaDz2nL0gzvAXaLbR4w
The Cheesecake Factory,42.21999,-71.022711,False,02184,Braintree,MA,$$,3.0,https://www.yelp.com/biz/the-cheesecake-factory-braintree?adjust_creative=1oh4LhpLWuJDqe_L_DZdyw&utm_campaign=yelp_api_v3&utm_medium=api_v3_business_search&utm_source=1oh4LhpLWuJDqe_L_DZdyw,358,[],"newamerican,desserts",qEZA-Vx-K3Snyn-tkQ3IJg
Bay Pointe Waterfront Restaurant,42.2467818,-70.976326,False,02169,Quincy,MA,$$,3.0,https://www.yelp.com/biz/bay-pointe-waterfront-restaurant-quincy?adjust_creative=1oh4LhpLWuJDqe_L_DZdyw&utm_campaign=yelp_api_v3&utm_medium=api_v3_business_search&utm_source=1oh4LhpLWuJDqe_L_DZdyw,243,[],"tradamerican,seafood,newamerican",vPXrpTMN3Z4IjcX4ZbrlJQ
Adriatic,42.3719166219234,-70.9705471247435,False,02152,Winthrop,MA,$$,4.5,https://www.yelp.com/biz/adriatic-winthrop?adjust_creative=1oh4LhpLWuJDqe_L_DZdyw&utm_campaign=yelp_api_v3&utm_medium=api_v3_business_search&utm_source=1oh4LhpLWuJDqe_L_DZdyw,14,[],mediterranean,lE9lGJMmsjwW8XgPOV-Wlw
Belle Isle Seafood,42.3826116,-70.9936784,False,02152,Winthrop,MA,$$,3.5,https://www.yelp.com/biz/belle-isle-seafood-winthrop?adjust_creative=1oh4LhpLWuJDqe_L_DZdyw&utm_campaign=yelp_api_v3&utm_medium=api_v3_business_search&utm_source=1oh4LhpLWuJDqe_L_DZdyw,337,[],seafood,tC7u1XLE6kK31L809NfyUQ
La Scala Restaurant,42.19259,-71.06009,False,02368,Randolph,MA,$$,3.5,https://www.yelp.com/biz/la-scala-restaurant-randolph?adjust_creative=1oh4LhpLWuJDqe_L_DZdyw&utm_campaign=yelp_api_v3&utm_medium=api_v3_business_search&utm_source=1oh4LhpLWuJDqe_L_DZdyw,171,[],italian,_S4j-74ZR4MUkWdiMlBoFQ
Volare Restaurant and Bar,42.41021,-71.01247,False,02151,Revere,MA,$$,4.0,https://www.yelp.com/biz/volare-restaurant-and-bar-revere?adjust_creative=1oh4LhpLWuJDqe_L_DZdyw&utm_campaign=yelp_api_v3&utm_medium=api_v3_business_search&utm_source=1oh4LhpLWuJDqe_L_DZdyw,167,[],"italian,lounges",WLYDPoWGriHWtf4BmRVx2Q
Santorini,42.42219,-70.98503,False,02151,Revere,MA,$$,3.0,https://www.yelp.com/biz/santorini-revere?adjust_creative=1oh4LhpLWuJDqe_L_DZdyw&utm_campaign=yelp_api_v3&utm_medium=api_v3_business_search&utm_source=1oh4LhpLWuJDqe_L_DZdyw,50,"['delivery', 'pickup']",seafood,vUpbLwBKL1YiOreQ7p6Vfw
The Marina Restaurant & Bar At the Wharf,42.43091,-70.97926,False,02151,Revere,MA,$$,4.0,https://www.yelp.com/biz/the-marina-restaurant-and-bar-at-the-wharf-revere-2?adjust_creative=1oh4LhpLWuJDqe_L_DZdyw&utm_campaign=yelp_api_v3&utm_medium=api_v3_business_search&utm_source=1oh4LhpLWuJDqe_L_DZdyw,154,[],"seafood,bars,tradamerican",WRv36_xwynru5AFVEyCOkw
Victor's Italian Restaurant,42.4467180669308,-71.0109351575375,False,01906,Saugus,MA,$$,4.5,https://www.yelp.com/biz/victors-italian-restaurant-saugus?adjust_creative=1oh4LhpLWuJDqe_L_DZdyw&utm_campaign=yelp_api_v3&utm_medium=api_v3_business_search&utm_source=1oh4LhpLWuJDqe_L_DZdyw,90,[],italian,Z0K_lNlqzz-aUDbvexpD5A
Pho Bistro,42.4262957,-71.0676314,False,02148,Malden,MA,$,3.0,https://www.yelp.com/biz/pho-bistro-malden?adjust_creative=1oh4LhpLWuJDqe_L_DZdyw&utm_campaign=yelp_api_v3&utm_medium=api_v3_business_search&utm_source=1oh4LhpLWuJDqe_L_DZdyw,219,[],"vietnamese,soup,seafood",h7OHsyPpUFz9V7oiQWKFnQ
Exchange Street Bistro,42.426597,-71.0693916,False,02148,Malden,MA,$$,4.0,https://www.yelp.com/biz/exchange-street-bistro-malden?adjust_creative=1oh4LhpLWuJDqe_L_DZdyw&utm_campaign=yelp_api_v3&utm_medium=api_v3_business_search&utm_source=1oh4LhpLWuJDqe_L_DZdyw,391,[],"newamerican,breakfast_brunch,lounges",tPY0JQVfAVEvVeDauJKEHg
CAVA,42.2311182910401,-71.1777499275793,False,02026,Dedham,MA,$$,4.5,https://www.yelp.com/biz/cava-dedham?adjust_creative=1oh4LhpLWuJDqe_L_DZdyw&utm_campaign=yelp_api_v3&utm_medium=api_v3_business_search&utm_source=1oh4LhpLWuJDqe_L_DZdyw,33,[],mediterranean,qVoaL553iwP7fpt0Xr4Bdg
Vico Ristorante Italiano,42.1933894,-71.1999598,False,02062,Norwood,MA,$$,4.5,https://www.yelp.com/biz/vico-ristorante-italiano-norwood?adjust_creative=1oh4LhpLWuJDqe_L_DZdyw&utm_campaign=yelp_api_v3&utm_medium=api_v3_business_search&utm_source=1oh4LhpLWuJDqe_L_DZdyw,85,[],italian,IFamp2iDylLbgkxN8WaG0A
Hibachi Steak House,42.17024,-71.19483,False,02062,Norwood,MA,$$,3.5,https://www.yelp.com/biz/hibachi-steak-house-norwood?adjust_creative=1oh4LhpLWuJDqe_L_DZdyw&utm_campaign=yelp_api_v3&utm_medium=api_v3_business_search&utm_source=1oh4LhpLWuJDqe_L_DZdyw,79,['pickup'],"steak,japanese",2K1A9fEqmo-N2J6VEBXcDA
Sky,42.1667880097659,-71.1990098210585,False,02062,Norwood,MA,$$$,3.5,https://www.yelp.com/biz/sky-norwood?adjust_creative=1oh4LhpLWuJDqe_L_DZdyw&utm_campaign=yelp_api_v3&utm_medium=api_v3_business_search&utm_source=1oh4LhpLWuJDqe_L_DZdyw,174,['pickup'],"newamerican,lounges",luDal00Gw3r-1KjI1454ZA
Not Your Average Joe's,42.1651421,-71.0569395,False,02368,Randolph,MA,$$,3.5,https://www.yelp.com/biz/not-your-average-joes-randolph?adjust_creative=1oh4LhpLWuJDqe_L_DZdyw&utm_campaign=yelp_api_v3&utm_medium=api_v3_business_search&utm_source=1oh4LhpLWuJDqe_L_DZdyw,205,[],newamerican,YJJEptfpcPLsDY3zPCjpLg
Pho 98°C,42.1644871,-71.0426179,False,02368,Randolph,MA,$$,4.5,https://www.yelp.com/biz/pho-98-c-randolph-4?adjust_creative=1oh4LhpLWuJDqe_L_DZdyw&utm_campaign=yelp_api_v3&utm_medium=api_v3_business_search&utm_source=1oh4LhpLWuJDqe_L_DZdyw,173,"['delivery', 'pickup']","vietnamese,bars,hotpot",757zI3bNk4CZ9cql3T6rbQ
Amelia's,42.139792,-71.103506,False,02072,Stoughton,MA,$$$,4.0,https://www.yelp.com/biz/amelias-stoughton-6?adjust_creative=1oh4LhpLWuJDqe_L_DZdyw&utm_campaign=yelp_api_v3&utm_medium=api_v3_business_search&utm_source=1oh4LhpLWuJDqe_L_DZdyw,165,[],"bars,italian",xCKxmjueOoS5NBrOHuJ5Lg
Maria's Pizzeria,42.15114,-71.0088899,False,02343,Holbrook,MA,$,4.0,https://www.yelp.com/biz/marias-pizzeria-holbrook-2?adjust_creative=1oh4LhpLWuJDqe_L_DZdyw&utm_campaign=yelp_api_v3&utm_medium=api_v3_business_search&utm_source=1oh4LhpLWuJDqe_L_DZdyw,33,[],"pizza,italian,salad",pUyPajqPzuN-hdQXW6T3dg
Captain Marden's Seafoods,42.3019525408745,-71.2885719537735,False,02482,Wellesley,MA,$$,3.5,https://www.yelp.com/biz/captain-mardens-seafoods-wellesley?adjust_creative=1oh4LhpLWuJDqe_L_DZdyw&utm_campaign=yelp_api_v3&utm_medium=api_v3_business_search&utm_source=1oh4LhpLWuJDqe_L_DZdyw,190,[],"seafoodmarkets,seafood,breakfast_brunch",YYWfxVRa9v-48Lehza2RYQ
Bocado Tapas Wine Bar,42.295932,-71.295113,False,02482,Wellesley,MA,$$,3.5,https://www.yelp.com/biz/bocado-tapas-wine-bar-wellesley-2?adjust_creative=1oh4LhpLWuJDqe_L_DZdyw&utm_campaign=yelp_api_v3&utm_medium=api_v3_business_search&utm_source=1oh4LhpLWuJDqe_L_DZdyw,147,"['pickup', 'delivery']","tapas,spanish,wine_bars",KjmdwtRacEv1c0_w3Nmsdg
