name,latitude,longitude,is_closed,zipcode,city,state,price,rating,url,review_count,transactions,category,id
Crawfish N More,29.83161,-95.6461,False,77084,Houston,TX,$$,4.5,https://www.yelp.com/biz/crawfish-n-more-houston?adjust_creative=OvRCQGmWRwMIvAEILCAnZA&utm_campaign=yelp_api_v3&utm_medium=api_v3_business_search&utm_source=OvRCQGmWRwMIvAEILCAnZA,283,[],"cajun,seafood",JQEqfBBNAlgaN1WwrmJbGQ
Taquerias Arandas,29.83473,-95.64531,False,77084,Houston,TX,$,3.5,https://www.yelp.com/biz/taquerias-arandas-houston-11?adjust_creative=OvRCQGmWRwMIvAEILCAnZA&utm_campaign=yelp_api_v3&utm_medium=api_v3_business_search&utm_source=OvRCQGmWRwMIvAEILCAnZA,31,[],"mexican,breakfast_brunch,seafood",z_b9nZMf7CMkpZLApCGEmw
Los Cucos Mexican Cafe - Clay,29.83703,-95.64792,False,77084,Houston,TX,$$,3.0,https://www.yelp.com/biz/los-cucos-mexican-cafe-clay-houston-4?adjust_creative=OvRCQGmWRwMIvAEILCAnZA&utm_campaign=yelp_api_v3&utm_medium=api_v3_business_search&utm_source=OvRCQGmWRwMIvAEILCAnZA,154,"['pickup', 'delivery']","mexican,bars,tex-mex",DIIkt-9jIHdGO1_F2Bj9Nw
Hank's Crawfish Bar & Grill,29.8380625235775,-95.6462176144123,False,77084,Houston,TX,$$,3.5,https://www.yelp.com/biz/hanks-crawfish-bar-and-grill-houston-2?adjust_creative=OvRCQGmWRwMIvAEILCAnZA&utm_campaign=yelp_api_v3&utm_medium=api_v3_business_search&utm_source=OvRCQGmWRwMIvAEILCAnZA,214,[],"cajun,seafood,beerbar",MAFdtMFDRfjfmfzuoD_8rA
Gran Colombia Restaurante,29.857618,-95.644069,False,77084,Houston,TX,$,4.0,https://www.yelp.com/biz/gran-colombia-restaurante-houston?adjust_creative=OvRCQGmWRwMIvAEILCAnZA&utm_campaign=yelp_api_v3&utm_medium=api_v3_business_search&utm_source=OvRCQGmWRwMIvAEILCAnZA,65,[],"colombian,seafood,breakfast_brunch",vjtueSU2A2UEnJdw67i9Wg
The Bayou Sports Bar And Grill,29.859224319458,-95.6333999633789,False,77084,Houston,TX,$$,4.0,https://www.yelp.com/biz/the-bayou-sports-bar-and-grill-houston?adjust_creative=OvRCQGmWRwMIvAEILCAnZA&utm_campaign=yelp_api_v3&utm_medium=api_v3_business_search&utm_source=OvRCQGmWRwMIvAEILCAnZA,7,[],sportsbars,UeCrzGBxsJR2O1RFNUPlZg
Cafe Benedicte,29.77945,-95.62809,False,77079,Houston,TX,$$,4.0,https://www.yelp.com/biz/cafe-benedicte-houston?adjust_creative=OvRCQGmWRwMIvAEILCAnZA&utm_campaign=yelp_api_v3&utm_medium=api_v3_business_search&utm_source=OvRCQGmWRwMIvAEILCAnZA,227,[],"newamerican,breakfast_brunch,burgers",DK_-WdFdbCFWtkNbm4FZyg
Amar Indian-European Cuisine,29.79556,-95.68898,False,77084,Houston,TX,$$,4.5,https://www.yelp.com/biz/amar-indian-european-cuisine-houston-3?adjust_creative=OvRCQGmWRwMIvAEILCAnZA&utm_campaign=yelp_api_v3&utm_medium=api_v3_business_search&utm_source=OvRCQGmWRwMIvAEILCAnZA,94,"['pickup', 'delivery']","indpak,modern_european",6CZWccw-3uTuGbG2FFE-7Q
Aguirre's Tex-Mex,29.8696291239773,-95.6448008042297,False,77084,Houston,TX,$$,4.5,https://www.yelp.com/biz/aguirres-tex-mex-houston?adjust_creative=OvRCQGmWRwMIvAEILCAnZA&utm_campaign=yelp_api_v3&utm_medium=api_v3_business_search&utm_source=OvRCQGmWRwMIvAEILCAnZA,401,[],"tex-mex,mexican,bars",eWTfIYBQQGPQheREBLnHxw
Petit Cafe Mediterranean Grill,29.7666689343043,-95.6249085926677,False,77077,Houston,TX,$$,4.0,https://www.yelp.com/biz/petit-cafe-mediterranean-grill-houston-2?adjust_creative=OvRCQGmWRwMIvAEILCAnZA&utm_campaign=yelp_api_v3&utm_medium=api_v3_business_search&utm_source=OvRCQGmWRwMIvAEILCAnZA,166,"['pickup', 'delivery']","greek,mediterranean,lebanese",cwfrrTkhhds427yDndUMxQ
Island Spice Bar & Grill,29.8657869,-95.6807477,False,77084,Houston,TX,$$,4.0,https://www.yelp.com/biz/island-spice-bar-and-grill-houston-4?adjust_creative=OvRCQGmWRwMIvAEILCAnZA&utm_campaign=yelp_api_v3&utm_medium=api_v3_business_search&utm_source=OvRCQGmWRwMIvAEILCAnZA,109,['pickup'],"caribbean,bars",LuRSoQZ-HD6GtXF0cYfPLg
Havana Houston,29.769704,-95.604805,False,77079,Houston,TX,$$$,4.0,https://www.yelp.com/biz/havana-houston-houston?adjust_creative=OvRCQGmWRwMIvAEILCAnZA&utm_campaign=yelp_api_v3&utm_medium=api_v3_business_search&utm_source=OvRCQGmWRwMIvAEILCAnZA,78,"['pickup', 'delivery']","cuban,seafood,steak",Ri-wbAVnC6QgcznpWerPfQ
Fatoush  Mediterranean Grill & Cafe,29.8795333229135,-95.6564894646566,False,77095,Houston,TX,$$,4.0,https://www.yelp.com/biz/fatoush-mediterranean-grill-and-cafe-houston-4?adjust_creative=OvRCQGmWRwMIvAEILCAnZA&utm_campaign=yelp_api_v3&utm_medium=api_v3_business_search&utm_source=OvRCQGmWRwMIvAEILCAnZA,182,"['pickup', 'delivery']","mediterranean,hookah_bars",VxG6D5YldtJfiSzGxZ7FEA
LTK Crawfish,29.8805859981844,-95.608088650385,False,77041,Houston,TX,$$,4.0,https://www.yelp.com/biz/ltk-crawfish-houston?adjust_creative=OvRCQGmWRwMIvAEILCAnZA&utm_campaign=yelp_api_v3&utm_medium=api_v3_business_search&utm_source=OvRCQGmWRwMIvAEILCAnZA,155,[],"cajun,seafood,tradamerican",CR3dPONyM_-rea2m7_oCjw
The Devine Affair,29.7702286,-95.591387,False,77079,Houston,TX,$$,4.0,https://www.yelp.com/biz/the-devine-affair-houston?adjust_creative=OvRCQGmWRwMIvAEILCAnZA&utm_campaign=yelp_api_v3&utm_medium=api_v3_business_search&utm_source=OvRCQGmWRwMIvAEILCAnZA,97,"['pickup', 'delivery']","italian,seafood,wine_bars",9p61hOdz5-Ui3URxad6zXQ
Brenner's Steakhouse,29.7837660525252,-95.5708757042885,False,77079,Houston,TX,$$$,4.0,https://www.yelp.com/biz/brenners-steakhouse-houston?adjust_creative=OvRCQGmWRwMIvAEILCAnZA&utm_campaign=yelp_api_v3&utm_medium=api_v3_business_search&utm_source=OvRCQGmWRwMIvAEILCAnZA,178,[],"steak,newamerican,venues",RVdYuJ9QBgR-VGwBq19Bag
Buffalo Wild Wings,29.790399,-95.720037,False,77449,Katy,TX,$$,2.0,https://www.yelp.com/biz/buffalo-wild-wings-katy?adjust_creative=OvRCQGmWRwMIvAEILCAnZA&utm_campaign=yelp_api_v3&utm_medium=api_v3_business_search&utm_source=OvRCQGmWRwMIvAEILCAnZA,136,['delivery'],"chicken_wings,tradamerican,sportsbars",expuw9Vq0zSU67vzhqo0LQ
China Inn,29.89655,-95.6373,False,77095,Houston,TX,$,3.5,https://www.yelp.com/biz/china-inn-houston?adjust_creative=OvRCQGmWRwMIvAEILCAnZA&utm_campaign=yelp_api_v3&utm_medium=api_v3_business_search&utm_source=OvRCQGmWRwMIvAEILCAnZA,47,"['pickup', 'delivery']","chinese,seafood,noodles",p3IxCvX0OTZmP2mIo4tumg
Niko Niko's Greek & American Café,29.7860908508301,-95.5618362426758,False,77043,Houston,TX,$$,3.5,https://www.yelp.com/biz/niko-nikos-greek-and-american-caf%C3%A9-houston-3?adjust_creative=OvRCQGmWRwMIvAEILCAnZA&utm_campaign=yelp_api_v3&utm_medium=api_v3_business_search&utm_source=OvRCQGmWRwMIvAEILCAnZA,272,[],"mediterranean,greek,newamerican",l9P8h9PbUSRnOzKEOLvWYw
Texas de Brazil,29.781834,-95.561019,False,77024,Houston,TX,$$$,3.5,https://www.yelp.com/biz/texas-de-brazil-houston-3?adjust_creative=OvRCQGmWRwMIvAEILCAnZA&utm_campaign=yelp_api_v3&utm_medium=api_v3_business_search&utm_source=OvRCQGmWRwMIvAEILCAnZA,258,[],"steak,brazilian,venues",e9vc1j0z9fRumdPzWnVCDw
Hotspot Cajun Seafood House,29.8900985634066,-95.6846074014902,False,77433,Cypress,TX,$$,3.5,https://www.yelp.com/biz/hotspot-cajun-seafood-house-cypress?adjust_creative=OvRCQGmWRwMIvAEILCAnZA&utm_campaign=yelp_api_v3&utm_medium=api_v3_business_search&utm_source=OvRCQGmWRwMIvAEILCAnZA,115,[],"seafood,cajun",MLLDgk605Qaoe6Vgkvd2NA
The Capital Grille,29.7800767,-95.5616875,False,77024,Houston,TX,$$$,4.5,https://www.yelp.com/biz/the-capital-grille-houston-2?adjust_creative=OvRCQGmWRwMIvAEILCAnZA&utm_campaign=yelp_api_v3&utm_medium=api_v3_business_search&utm_source=OvRCQGmWRwMIvAEILCAnZA,209,[],"steak,seafood,wine_bars",y-fYpCUC5UCyCLt_8ChAdA
Zayed's Mediterranean Buffet,29.7796136,-95.5614851,False,77024,Houston,TX,$$,3.5,https://www.yelp.com/biz/zayeds-mediterranean-buffet-houston-2?adjust_creative=OvRCQGmWRwMIvAEILCAnZA&utm_campaign=yelp_api_v3&utm_medium=api_v3_business_search&utm_source=OvRCQGmWRwMIvAEILCAnZA,40,"['pickup', 'delivery']","mediterranean,salad,catering",1-i9Iq7J8pvwrmW9Fqf4SA
Radio Milano,29.7799207638128,-95.5613718858444,False,77024,Houston,TX,$$,3.5,https://www.yelp.com/biz/radio-milano-houston-2?adjust_creative=OvRCQGmWRwMIvAEILCAnZA&utm_campaign=yelp_api_v3&utm_medium=api_v3_business_search&utm_source=OvRCQGmWRwMIvAEILCAnZA,114,[],"italian,wine_bars,cocktailbars",Eau961yW93F1Lpq30eiiAw
Yard House,29.7800646137018,-95.5611419677735,False,77024,Houston,TX,$$,3.5,https://www.yelp.com/biz/yard-house-houston?adjust_creative=OvRCQGmWRwMIvAEILCAnZA&utm_campaign=yelp_api_v3&utm_medium=api_v3_business_search&utm_source=OvRCQGmWRwMIvAEILCAnZA,982,"['pickup', 'delivery']","bars,newamerican,vegetarian",ZmY31p5jQRpkq_xOJU39nA
Frenchy's Chicken,29.891807,-95.684439,False,77433,Cypress,TX,$$,3.5,https://www.yelp.com/biz/frenchys-chicken-cypress?adjust_creative=OvRCQGmWRwMIvAEILCAnZA&utm_campaign=yelp_api_v3&utm_medium=api_v3_business_search&utm_source=OvRCQGmWRwMIvAEILCAnZA,30,"['pickup', 'delivery']","cajun,soulfood,chickenshop",3V66e_27HUGzaW_kVcyjjg
McCormick & Schmick's Seafood & Steaks,29.778414,-95.561058,False,77024,Houston,TX,$$$,3.0,https://www.yelp.com/biz/mccormick-and-schmicks-seafood-and-steaks-houston-4?adjust_creative=OvRCQGmWRwMIvAEILCAnZA&utm_campaign=yelp_api_v3&utm_medium=api_v3_business_search&utm_source=OvRCQGmWRwMIvAEILCAnZA,236,"['pickup', 'delivery']","seafood,tradamerican,steak",bR18flOOI1Y0OAs5p-8J5w
Brio Tuscan Grille,29.779225,-95.560273,False,77024,Houston,TX,$$,3.5,https://www.yelp.com/biz/brio-tuscan-grille-houston?adjust_creative=OvRCQGmWRwMIvAEILCAnZA&utm_campaign=yelp_api_v3&utm_medium=api_v3_business_search&utm_source=OvRCQGmWRwMIvAEILCAnZA,366,"['pickup', 'delivery']","italian,breakfast_brunch,gluten_free",uUBTY4SsktQf2FCR-RCA3w
La Madeleine French Bakery & Cafe,29.776521,-95.562014,False,77024,Houston,TX,$$,3.0,https://www.yelp.com/biz/la-madeleine-french-bakery-and-cafe-houston-2?adjust_creative=OvRCQGmWRwMIvAEILCAnZA&utm_campaign=yelp_api_v3&utm_medium=api_v3_business_search&utm_source=OvRCQGmWRwMIvAEILCAnZA,106,[],"bakeries,french",O1gGj8WKnV3qiM6hdIJ7CQ
Taste of Texas,29.7827412984213,-95.5567589986725,False,77024,Houston,TX,$$$,4.5,https://www.yelp.com/biz/taste-of-texas-houston?adjust_creative=OvRCQGmWRwMIvAEILCAnZA&utm_campaign=yelp_api_v3&utm_medium=api_v3_business_search&utm_source=OvRCQGmWRwMIvAEILCAnZA,1228,[],"steak,wine_bars",bRA-zzvte71rq5x45J7-zQ
Pappadeaux Seafood Kitchen,29.7832873757277,-95.5561865866184,False,77024,Houston,TX,$$,3.5,https://www.yelp.com/biz/pappadeaux-seafood-kitchen-houston-3?adjust_creative=OvRCQGmWRwMIvAEILCAnZA&utm_campaign=yelp_api_v3&utm_medium=api_v3_business_search&utm_source=OvRCQGmWRwMIvAEILCAnZA,333,[],"seafood,cajun,bars",7VOtHB8Iua_tTuALsUUjgw
Pappasito's Cantina,29.783328,-95.555082,False,77024,Houston,TX,$$,3.5,https://www.yelp.com/biz/pappasitos-cantina-houston-12?adjust_creative=OvRCQGmWRwMIvAEILCAnZA&utm_campaign=yelp_api_v3&utm_medium=api_v3_business_search&utm_source=OvRCQGmWRwMIvAEILCAnZA,363,[],"tex-mex,seafood,cocktailbars",tKz8gfZo6myL7LfCblyREQ
Long John Silver's,29.810929,-95.544805,False,77080,Houston,TX,$,2.0,https://www.yelp.com/biz/long-john-silvers-houston-13?adjust_creative=OvRCQGmWRwMIvAEILCAnZA&utm_campaign=yelp_api_v3&utm_medium=api_v3_business_search&utm_source=OvRCQGmWRwMIvAEILCAnZA,22,[],"seafood,tacos,sandwiches",R-W_OXrdMnyF5Obn2osUlg
Shish Kabob Cafe,29.7366841301287,-95.6460333732941,False,77077,Houston,TX,$,3.5,https://www.yelp.com/biz/shish-kabob-cafe-houston?adjust_creative=OvRCQGmWRwMIvAEILCAnZA&utm_campaign=yelp_api_v3&utm_medium=api_v3_business_search&utm_source=OvRCQGmWRwMIvAEILCAnZA,99,"['pickup', 'delivery']","mideastern,persian,kebab",yIIBinX7jh_SzNJS_TSw7w
Maine-ly Sandwiches,29.89586,-95.68304,False,77433,Cypress,TX,$$,3.5,https://www.yelp.com/biz/maine-ly-sandwiches-cypress?adjust_creative=OvRCQGmWRwMIvAEILCAnZA&utm_campaign=yelp_api_v3&utm_medium=api_v3_business_search&utm_source=OvRCQGmWRwMIvAEILCAnZA,54,[],"seafood,soup,sandwiches",O55x30MbuYHgIdnfP6PxIg
Adriatic Cafe  Italian Grill,29.8898572957493,-95.5826705374774,False,77040,Jersey Village,TX,$$,4.5,https://www.yelp.com/biz/adriatic-cafe-italian-grill-jersey-village?adjust_creative=OvRCQGmWRwMIvAEILCAnZA&utm_campaign=yelp_api_v3&utm_medium=api_v3_business_search&utm_source=OvRCQGmWRwMIvAEILCAnZA,448,[],"italian,wine_bars,pizza",hBDyMM7g3Gy3ucKgLPUvZg
Piccolo Cafe,29.7351756819357,-95.6282933559763,False,77077,Houston,TX,$$,4.0,https://www.yelp.com/biz/piccolo-cafe-houston?adjust_creative=OvRCQGmWRwMIvAEILCAnZA&utm_campaign=yelp_api_v3&utm_medium=api_v3_business_search&utm_source=OvRCQGmWRwMIvAEILCAnZA,90,[],"italian,cafes",IxrWfPEVjdNIkE2EshBgHg
Texas Roadhouse,29.78613,-95.733571,False,77449,Katy,TX,$$,3.5,https://www.yelp.com/biz/texas-roadhouse-katy?adjust_creative=OvRCQGmWRwMIvAEILCAnZA&utm_campaign=yelp_api_v3&utm_medium=api_v3_business_search&utm_source=OvRCQGmWRwMIvAEILCAnZA,215,[],"steak,bbq,tradamerican",2che358Nd2sQoX4j9E0HQA
Orleans Seafood Kitchen,29.7870518,-95.7347636,False,77449,Katy,TX,$$,4.0,https://www.yelp.com/biz/orleans-seafood-kitchen-katy?adjust_creative=OvRCQGmWRwMIvAEILCAnZA&utm_campaign=yelp_api_v3&utm_medium=api_v3_business_search&utm_source=OvRCQGmWRwMIvAEILCAnZA,336,[],"cajun,seafood",yBOed_HywFXyPVa_Vz6iTQ
La Guitarra con Sazon,29.7357467696053,-95.6086436865082,False,77077,Houston,TX,$$,4.0,https://www.yelp.com/biz/la-guitarra-con-sazon-houston?adjust_creative=OvRCQGmWRwMIvAEILCAnZA&utm_campaign=yelp_api_v3&utm_medium=api_v3_business_search&utm_source=OvRCQGmWRwMIvAEILCAnZA,108,['pickup'],"latin,peruvian,seafood",3ZMjCTIGUOkMVLjUJeXmRA
Churrascos Memorial City,29.7834412876326,-95.5457239033355,False,77024,Houston,TX,$$,4.0,https://www.yelp.com/biz/churrascos-memorial-city-houston?adjust_creative=OvRCQGmWRwMIvAEILCAnZA&utm_campaign=yelp_api_v3&utm_medium=api_v3_business_search&utm_source=OvRCQGmWRwMIvAEILCAnZA,159,[],"latin,brazilian,seafood",Nfxp3yzYQHO5z4Uyfpl6uw
State Fare Kitchen & Bar,29.7835239500176,-95.5452689900994,False,77024,Houston,TX,$$,4.0,https://www.yelp.com/biz/state-fare-kitchen-and-bar-houston?adjust_creative=OvRCQGmWRwMIvAEILCAnZA&utm_campaign=yelp_api_v3&utm_medium=api_v3_business_search&utm_source=OvRCQGmWRwMIvAEILCAnZA,556,[],"southern,bars",_o26ywhvAPI6OzBBLB6dzw
Jimmy Changas,29.7829986,-95.7363461,False,77450,Katy,TX,$$,4.0,https://www.yelp.com/biz/jimmy-changas-katy?adjust_creative=OvRCQGmWRwMIvAEILCAnZA&utm_campaign=yelp_api_v3&utm_medium=api_v3_business_search&utm_source=OvRCQGmWRwMIvAEILCAnZA,374,[],"mexican,tex-mex,bars",ymHpqTrC-zEHKZAchtXKiw
Cafe Caspian,29.7369290596543,-95.5945301380982,False,77077,Houston,TX,$$,4.5,https://www.yelp.com/biz/cafe-caspian-houston?adjust_creative=OvRCQGmWRwMIvAEILCAnZA&utm_campaign=yelp_api_v3&utm_medium=api_v3_business_search&utm_source=OvRCQGmWRwMIvAEILCAnZA,208,[],persian,ewKB645_Gw79ojabJAH02A
Chuy's,29.7862022337057,-95.7400401900942,False,77449,Katy,TX,$$,3.5,https://www.yelp.com/biz/chuys-katy?adjust_creative=OvRCQGmWRwMIvAEILCAnZA&utm_campaign=yelp_api_v3&utm_medium=api_v3_business_search&utm_source=OvRCQGmWRwMIvAEILCAnZA,246,[],"mexican,tex-mex,bars",HWfKOElPDzykqMArZJ2k_w
Mascalzone,29.736579544442,-95.5946147031243,False,77077,Houston,TX,$$,4.0,https://www.yelp.com/biz/mascalzone-houston-2?adjust_creative=OvRCQGmWRwMIvAEILCAnZA&utm_campaign=yelp_api_v3&utm_medium=api_v3_business_search&utm_source=OvRCQGmWRwMIvAEILCAnZA,332,"['pickup', 'delivery']","pizza,italian,wine_bars",ZVLUnC1kyifTEA-BBjIt9w
Sayad Mediterranean Grill,29.73573,-95.59685,False,77077,Houston,TX,$$,4.0,https://www.yelp.com/biz/sayad-mediterranean-grill-houston?adjust_creative=OvRCQGmWRwMIvAEILCAnZA&utm_campaign=yelp_api_v3&utm_medium=api_v3_business_search&utm_source=OvRCQGmWRwMIvAEILCAnZA,356,['pickup'],"mediterranean,seafood",PXJYy8CLGcsp85o0RZHvaQ
The Union Kitchen,29.7664730162617,-95.5526548435874,False,77024,Houston,TX,$$,3.5,https://www.yelp.com/biz/the-union-kitchen-houston-3?adjust_creative=OvRCQGmWRwMIvAEILCAnZA&utm_campaign=yelp_api_v3&utm_medium=api_v3_business_search&utm_source=OvRCQGmWRwMIvAEILCAnZA,358,[],newamerican,2WIwCGnGRHGIasaQq4SXRg
Pappadeaux Seafood Kitchen,29.73508,-95.59365,False,77077,Houston,TX,$$,3.5,https://www.yelp.com/biz/pappadeaux-seafood-kitchen-houston-13?adjust_creative=OvRCQGmWRwMIvAEILCAnZA&utm_campaign=yelp_api_v3&utm_medium=api_v3_business_search&utm_source=OvRCQGmWRwMIvAEILCAnZA,166,[],"cajun,seafood",ahfO5CGkh6lAdFrJljRPfw
88 Boiling Crawfish and Seafood,29.7477425058136,-95.5723978579044,False,77042,Houston,TX,$$,4.0,https://www.yelp.com/biz/88-boiling-crawfish-and-seafood-houston?adjust_creative=OvRCQGmWRwMIvAEILCAnZA&utm_campaign=yelp_api_v3&utm_medium=api_v3_business_search&utm_source=OvRCQGmWRwMIvAEILCAnZA,509,[],"seafood,cajun",fqykkJW_qllsiNRY6cd_hg
Catfish Station,29.915885,-95.630237,False,77095,Houston,TX,$$,4.0,https://www.yelp.com/biz/catfish-station-houston-2?adjust_creative=OvRCQGmWRwMIvAEILCAnZA&utm_campaign=yelp_api_v3&utm_medium=api_v3_business_search&utm_source=OvRCQGmWRwMIvAEILCAnZA,153,[],"seafood,salad,desserts",r-kPn58SJQEnpZAlyU3bxw
Garbanzo Mediterranean Fresh,29.780552,-95.539962,False,77024,Houston,TX,$,3.5,https://www.yelp.com/biz/garbanzo-mediterranean-fresh-houston?adjust_creative=OvRCQGmWRwMIvAEILCAnZA&utm_campaign=yelp_api_v3&utm_medium=api_v3_business_search&utm_source=OvRCQGmWRwMIvAEILCAnZA,122,['pickup'],mediterranean,OUm7vw21I5binvSwY9AmnA
Toro Japanese Steakhouse & Sushi Bar,29.914134,-95.61535,False,77065,Houston,TX,$$,3.5,https://www.yelp.com/biz/toro-japanese-steakhouse-and-sushi-bar-houston-2?adjust_creative=OvRCQGmWRwMIvAEILCAnZA&utm_campaign=yelp_api_v3&utm_medium=api_v3_business_search&utm_source=OvRCQGmWRwMIvAEILCAnZA,182,[],"japanese,sushi,steak",Tj6cwjByMoAqgjkWbW_HwA
Fish Skillet Seafood,29.7313144973177,-95.5922042950988,False,77082,Houston,TX,$,3.5,https://www.yelp.com/biz/fish-skillet-seafood-houston?adjust_creative=OvRCQGmWRwMIvAEILCAnZA&utm_campaign=yelp_api_v3&utm_medium=api_v3_business_search&utm_source=OvRCQGmWRwMIvAEILCAnZA,78,"['delivery', 'pickup']","seafood,cajun,hotdogs",aJ66huupUtonB5YAb2SgKQ
Lotus Seafood,29.732467535127,-95.5891109463723,False,77082,Houston,TX,$$,4.0,https://www.yelp.com/biz/lotus-seafood-houston-2?adjust_creative=OvRCQGmWRwMIvAEILCAnZA&utm_campaign=yelp_api_v3&utm_medium=api_v3_business_search&utm_source=OvRCQGmWRwMIvAEILCAnZA,315,[],"cajun,seafood,chicken_wings",XMKk51-d6AHCEjXIw73y5A
Island Grill,29.782326193466,-95.5322016736103,False,77098,Houston,TX,$$,4.0,https://www.yelp.com/biz/island-grill-houston-2?adjust_creative=OvRCQGmWRwMIvAEILCAnZA&utm_campaign=yelp_api_v3&utm_medium=api_v3_business_search&utm_source=OvRCQGmWRwMIvAEILCAnZA,123,[],"mediterranean,juicebars,tradamerican",y6rNHFKO0kuEAf1yYL_ifw
Tree Garden Korean Restaurant,29.7980612,-95.5257823,False,77055,Houston,TX,$$,4.0,https://www.yelp.com/biz/tree-garden-korean-restaurant-houston-2?adjust_creative=OvRCQGmWRwMIvAEILCAnZA&utm_campaign=yelp_api_v3&utm_medium=api_v3_business_search&utm_source=OvRCQGmWRwMIvAEILCAnZA,68,[],"korean,seafood,bbq",rQE66Di9riO1QH5DUxqUeg
Kabob Korner,29.776812,-95.751199,False,77450,Katy,TX,$$,4.0,https://www.yelp.com/biz/kabob-korner-katy?adjust_creative=OvRCQGmWRwMIvAEILCAnZA&utm_campaign=yelp_api_v3&utm_medium=api_v3_business_search&utm_source=OvRCQGmWRwMIvAEILCAnZA,254,"['delivery', 'pickup']","mediterranean,halal,kebab",ihuJAnMJMZ9atEdj11hqCw
Ephesus Mediterranian Grill,29.776873,-95.7531307,False,77450,Katy,TX,$$,4.5,https://www.yelp.com/biz/ephesus-mediterranian-grill-katy?adjust_creative=OvRCQGmWRwMIvAEILCAnZA&utm_campaign=yelp_api_v3&utm_medium=api_v3_business_search&utm_source=OvRCQGmWRwMIvAEILCAnZA,276,[],"mediterranean,turkish,halal",RItEq7lRIKuzPZczQZ0L5Q
LongHorn Steakhouse,29.78337,-95.52439,False,77024,Houston,TX,$$,3.5,https://www.yelp.com/biz/longhorn-steakhouse-houston-3?adjust_creative=OvRCQGmWRwMIvAEILCAnZA&utm_campaign=yelp_api_v3&utm_medium=api_v3_business_search&utm_source=OvRCQGmWRwMIvAEILCAnZA,139,[],"steak,tradamerican,bbq",z594rkgmYYlGUBA3sF_9Gw
LA Crawfish,29.7856311291765,-95.5228883876969,False,77055,Houston,TX,$$,3.5,https://www.yelp.com/biz/la-crawfish-houston?adjust_creative=OvRCQGmWRwMIvAEILCAnZA&utm_campaign=yelp_api_v3&utm_medium=api_v3_business_search&utm_source=OvRCQGmWRwMIvAEILCAnZA,585,[],"cajun,seafood,vietnamese",VoaMrVyTPu9JPmHSfCwSig
El Canton Firewood Pizzeria,29.7680701,-95.7514351,False,77450,Katy,TX,$$,4.5,https://www.yelp.com/biz/el-canton-firewood-pizzeria-katy?adjust_creative=OvRCQGmWRwMIvAEILCAnZA&utm_campaign=yelp_api_v3&utm_medium=api_v3_business_search&utm_source=OvRCQGmWRwMIvAEILCAnZA,288,"['delivery', 'pickup']","salad,pizza,italian",lEo_jl3c0sYAlBv3imQkCw
Jaxton's Grill House & Bar,29.9213828,-95.6865062,False,77433,Cypress,TX,$$,3.5,https://www.yelp.com/biz/jaxtons-bistro-and-bar-cypress?adjust_creative=OvRCQGmWRwMIvAEILCAnZA&utm_campaign=yelp_api_v3&utm_medium=api_v3_business_search&utm_source=OvRCQGmWRwMIvAEILCAnZA,280,[],"cocktailbars,breakfast_brunch,tradamerican",pA-ZVvs_e8tYdqIVydccRw
Sam's Boat,29.9226006949595,-95.6885394409808,False,77433,Cypress,TX,$$,2.5,https://www.yelp.com/biz/sams-boat-cypress?adjust_creative=OvRCQGmWRwMIvAEILCAnZA&utm_campaign=yelp_api_v3&utm_medium=api_v3_business_search&utm_source=OvRCQGmWRwMIvAEILCAnZA,244,[],"sportsbars,burgers,seafood",Ve9FZ6zKHDl82cXQNeGuAw
Jonathan's The Rub,29.7819051,-95.5128708,False,77024,Houston,TX,$$$,4.0,https://www.yelp.com/biz/jonathans-the-rub-houston?adjust_creative=OvRCQGmWRwMIvAEILCAnZA&utm_campaign=yelp_api_v3&utm_medium=api_v3_business_search&utm_source=OvRCQGmWRwMIvAEILCAnZA,337,"['delivery', 'pickup']","newamerican,seafood,steak",encsjTTta4eRVoOUygpgmQ
Saltgrass Steak House,29.78333,-95.50928,False,77024,Houston,TX,$$,3.0,https://www.yelp.com/biz/saltgrass-steak-house-houston?adjust_creative=OvRCQGmWRwMIvAEILCAnZA&utm_campaign=yelp_api_v3&utm_medium=api_v3_business_search&utm_source=OvRCQGmWRwMIvAEILCAnZA,159,"['pickup', 'delivery']","steak,gluten_free",5mJOK9xvf1GuKRClgJZN2g
Ragin' Cajun,29.7381140883129,-95.5384048673508,False,77063,Houston,TX,$$,3.0,https://www.yelp.com/biz/ragin-cajun-houston-7?adjust_creative=OvRCQGmWRwMIvAEILCAnZA&utm_campaign=yelp_api_v3&utm_medium=api_v3_business_search&utm_source=OvRCQGmWRwMIvAEILCAnZA,147,[],"cajun,seafood,sportsbars",Jt72nV8Ir-IZ0K8il-blcw
Yao Restaurant & Bar,29.7360464060819,-95.5406337378654,False,77042,Houston,TX,$$,3.5,https://www.yelp.com/biz/yao-restaurant-and-bar-houston?adjust_creative=OvRCQGmWRwMIvAEILCAnZA&utm_campaign=yelp_api_v3&utm_medium=api_v3_business_search&utm_source=OvRCQGmWRwMIvAEILCAnZA,225,"['delivery', 'pickup']","chinese,bars",h-JGDZqQUickC70xLvNDyw
Doña Lupe Mexican Restaurant Bar and Grill,29.81034,-95.50053,False,77055,Houston,TX,$$,3.5,https://www.yelp.com/biz/do%C3%B1a-lupe-mexican-restaurant-bar-and-grill-houston?adjust_creative=OvRCQGmWRwMIvAEILCAnZA&utm_campaign=yelp_api_v3&utm_medium=api_v3_business_search&utm_source=OvRCQGmWRwMIvAEILCAnZA,31,[],"mexican,bars",qDqZ7t--xU9h5H1A6E5c5w
Chili's,29.8455422403867,-95.4987019858972,False,77040,Houston,TX,$$,2.0,https://www.yelp.com/biz/chilis-houston-37?adjust_creative=OvRCQGmWRwMIvAEILCAnZA&utm_campaign=yelp_api_v3&utm_medium=api_v3_business_search&utm_source=OvRCQGmWRwMIvAEILCAnZA,74,[],"tradamerican,bars,tex-mex",w9wOnSKXK8uHAlJR8Vigiw
BB's Tex-Orleans,29.776421,-95.77836,False,77494,Katy,TX,$$,4.0,https://www.yelp.com/biz/bbs-tex-orleans-katy?adjust_creative=OvRCQGmWRwMIvAEILCAnZA&utm_campaign=yelp_api_v3&utm_medium=api_v3_business_search&utm_source=OvRCQGmWRwMIvAEILCAnZA,365,[],"cajun,seafood",bxWUKxUiv9bBovlthylX_w
Chuy's,29.738021,-95.528389,False,77063,Houston,TX,$$,3.5,https://www.yelp.com/biz/chuys-houston-6?adjust_creative=OvRCQGmWRwMIvAEILCAnZA&utm_campaign=yelp_api_v3&utm_medium=api_v3_business_search&utm_source=OvRCQGmWRwMIvAEILCAnZA,289,['delivery'],"mexican,tex-mex,bars",cxUH9w_uJ-pQOwok7G4lIQ
Hooters,29.84481,-95.49636,False,77040,Houston,TX,$$,2.0,https://www.yelp.com/biz/hooters-houston-9?adjust_creative=OvRCQGmWRwMIvAEILCAnZA&utm_campaign=yelp_api_v3&utm_medium=api_v3_business_search&utm_source=OvRCQGmWRwMIvAEILCAnZA,73,['delivery'],"sportsbars,tradamerican,chicken_wings",ESLf6HuYFdx7do4gKGA_eQ
Tequila Lopez Mexican Restaurant,29.690535320549,-95.6427595944427,False,77083,Houston,TX,$$,3.5,https://www.yelp.com/biz/tequila-lopez-mexican-restaurant-houston?adjust_creative=OvRCQGmWRwMIvAEILCAnZA&utm_campaign=yelp_api_v3&utm_medium=api_v3_business_search&utm_source=OvRCQGmWRwMIvAEILCAnZA,65,[],"mexican,tex-mex,cocktailbars",Mg7__oII6pSU0oQNVSelZA
Hank's Cajun Crawfish,29.7041349,-95.5696973,False,77072,Houston,TX,$$,3.0,https://www.yelp.com/biz/hanks-cajun-crawfish-houston?adjust_creative=OvRCQGmWRwMIvAEILCAnZA&utm_campaign=yelp_api_v3&utm_medium=api_v3_business_search&utm_source=OvRCQGmWRwMIvAEILCAnZA,103,[],cajun,YnuvJUdEMWA0ysQieQyJ0Q
Nazif's,29.7368990004261,-95.5208337306976,False,77063,Houston,TX,$$,4.0,https://www.yelp.com/biz/nazifs-houston-2?adjust_creative=OvRCQGmWRwMIvAEILCAnZA&utm_campaign=yelp_api_v3&utm_medium=api_v3_business_search&utm_source=OvRCQGmWRwMIvAEILCAnZA,168,"['delivery', 'pickup']","turkish,mediterranean,kebab",jbAqtwADuoqC8wptN327qw
Saltgrass Steak House,29.952183,-95.670351,False,77429,Cypress,TX,$$,3.5,https://www.yelp.com/biz/saltgrass-steak-house-cypress?adjust_creative=OvRCQGmWRwMIvAEILCAnZA&utm_campaign=yelp_api_v3&utm_medium=api_v3_business_search&utm_source=OvRCQGmWRwMIvAEILCAnZA,121,[],"steak,bars,seafood",dn5aOvijyWWdt0Lh6EO8UA
Marvino's,29.9523786220156,-95.6705638885876,False,77429,Cypress,TX,$$,3.5,https://www.yelp.com/biz/marvinos-cypress?adjust_creative=OvRCQGmWRwMIvAEILCAnZA&utm_campaign=yelp_api_v3&utm_medium=api_v3_business_search&utm_source=OvRCQGmWRwMIvAEILCAnZA,303,[],"italian,pizza",7PmFprvL0CkcuuwkTgfD0A
Nara Cafe,29.7335268434179,-95.5213972955641,False,77063,Houston,TX,$$,3.0,https://www.yelp.com/biz/nara-cafe-houston?adjust_creative=OvRCQGmWRwMIvAEILCAnZA&utm_campaign=yelp_api_v3&utm_medium=api_v3_business_search&utm_source=OvRCQGmWRwMIvAEILCAnZA,41,"['delivery', 'pickup']","hookah_bars,mediterranean,greek",sRc8Z1oqsE1vBvh2E6C2Aw
Outback Steakhouse,29.786884,-95.793461,False,77494,Katy,TX,$$,3.0,https://www.yelp.com/biz/outback-steakhouse-katy?adjust_creative=OvRCQGmWRwMIvAEILCAnZA&utm_campaign=yelp_api_v3&utm_medium=api_v3_business_search&utm_source=OvRCQGmWRwMIvAEILCAnZA,130,[],steak,Hgv4VLN8_OeEfLWTRiRzMQ
Steamboat House,29.9292953516694,-95.5421138847946,False,77064,Houston,TX,$$$,4.0,https://www.yelp.com/biz/steamboat-house-houston-2?adjust_creative=OvRCQGmWRwMIvAEILCAnZA&utm_campaign=yelp_api_v3&utm_medium=api_v3_business_search&utm_source=OvRCQGmWRwMIvAEILCAnZA,190,[],"steak,seafood,venues",i70KsurBnfl-wt7_UKaGeg
Fogo de Chão Brazilian Steakhouse,29.7378592864898,-95.5119364254855,False,77063,Houston,TX,$$$,4.0,https://www.yelp.com/biz/fogo-de-ch%C3%A3o-brazilian-steakhouse-houston-5?adjust_creative=OvRCQGmWRwMIvAEILCAnZA&utm_campaign=yelp_api_v3&utm_medium=api_v3_business_search&utm_source=OvRCQGmWRwMIvAEILCAnZA,775,[],"steak,brazilian",A52cxall8PLq49e4chbS4w
Las Alamedas Mexican Grill & Bar,29.742688,-95.775558,False,77494,Katy,TX,$$,2.5,https://www.yelp.com/biz/las-alamedas-mexican-grill-and-bar-katy-2?adjust_creative=OvRCQGmWRwMIvAEILCAnZA&utm_campaign=yelp_api_v3&utm_medium=api_v3_business_search&utm_source=OvRCQGmWRwMIvAEILCAnZA,207,[],"mexican,bars",1eVBCvSgCBVUJqAJ4b0ikQ
Ranosh,29.727327,-95.520927,False,77063,Houston,TX,$$,4.0,https://www.yelp.com/biz/ranosh-houston?adjust_creative=OvRCQGmWRwMIvAEILCAnZA&utm_campaign=yelp_api_v3&utm_medium=api_v3_business_search&utm_source=OvRCQGmWRwMIvAEILCAnZA,158,"['pickup', 'delivery']","mideastern,coffee,hookah_bars",c6A_wJljLFD4zMYU83Gc3Q
East Wall Chinese Restaurant,29.702670308356,-95.5524884470825,False,77036,Houston,TX,$$,4.0,https://www.yelp.com/biz/east-wall-chinese-restaurant-houston?adjust_creative=OvRCQGmWRwMIvAEILCAnZA&utm_campaign=yelp_api_v3&utm_medium=api_v3_business_search&utm_source=OvRCQGmWRwMIvAEILCAnZA,237,[],"chinese,seafood",0HuJBzTyauNtuLINzlsEVA
Peli Peli - Cinco Ranch,29.741652,-95.77522,False,77494,Katy,TX,$$,4.5,https://www.yelp.com/biz/peli-peli-cinco-ranch-katy?adjust_creative=OvRCQGmWRwMIvAEILCAnZA&utm_campaign=yelp_api_v3&utm_medium=api_v3_business_search&utm_source=OvRCQGmWRwMIvAEILCAnZA,255,"['pickup', 'delivery']","southafrican,steak,newamerican",jxXm3ruBNTU6qonu0qFiKw
Al Aseel Grill & Café,29.7288115815488,-95.5143270239425,False,77063,Houston,TX,$,4.0,https://www.yelp.com/biz/al-aseel-grill-and-caf%C3%A9-houston?adjust_creative=OvRCQGmWRwMIvAEILCAnZA&utm_campaign=yelp_api_v3&utm_medium=api_v3_business_search&utm_source=OvRCQGmWRwMIvAEILCAnZA,303,"['pickup', 'delivery']","mideastern,mediterranean",LGuKf3TBA5bpHvoZTUsT8A
Arturo Boada Cuisine,29.7458149,-95.4999159,False,77057,Houston,TX,$$$,4.5,https://www.yelp.com/biz/arturo-boada-cuisine-houston?adjust_creative=OvRCQGmWRwMIvAEILCAnZA&utm_campaign=yelp_api_v3&utm_medium=api_v3_business_search&utm_source=OvRCQGmWRwMIvAEILCAnZA,85,['pickup'],"seafood,spanish,italian",oBlMazgOzkZYAquDlhw84w
Killen's STQ,29.7448754909409,-95.5006698891521,False,77057,Houston,TX,$$$,4.0,https://www.yelp.com/biz/killens-stq-houston?adjust_creative=OvRCQGmWRwMIvAEILCAnZA&utm_campaign=yelp_api_v3&utm_medium=api_v3_business_search&utm_source=OvRCQGmWRwMIvAEILCAnZA,186,[],"steak,newamerican",TpJ187vZa4H92bR7CBn39A
Confucius Seafood Restaurant,29.7057042849407,-95.5408773564835,False,77036,Houston,TX,$$,3.5,https://www.yelp.com/biz/confucius-seafood-restaurant-houston?adjust_creative=OvRCQGmWRwMIvAEILCAnZA&utm_campaign=yelp_api_v3&utm_medium=api_v3_business_search&utm_source=OvRCQGmWRwMIvAEILCAnZA,450,[],"seafood,cantonese",543zy3lE-D7vJ11V6CaJaA
Captain T Seafood,29.6882945730095,-95.5683142303691,False,77072,Houston,TX,$$,3.5,https://www.yelp.com/biz/captain-t-seafood-houston-2?adjust_creative=OvRCQGmWRwMIvAEILCAnZA&utm_campaign=yelp_api_v3&utm_medium=api_v3_business_search&utm_source=OvRCQGmWRwMIvAEILCAnZA,83,[],"seafood,seafoodmarkets,cajun",kVypvktndoxpmWj9QjwDDw
Cyclone Anaya's Mexican Kitchen,29.75981,-95.48242,False,77057,Houston,TX,$$,3.0,https://www.yelp.com/biz/cyclone-anayas-mexican-kitchen-houston?adjust_creative=OvRCQGmWRwMIvAEILCAnZA&utm_campaign=yelp_api_v3&utm_medium=api_v3_business_search&utm_source=OvRCQGmWRwMIvAEILCAnZA,182,[],"mexican,bars,tex-mex",spN8qnrdWbvmIHM_4B1T7w
Kimos Grill,29.7728152752754,-95.8089696988463,False,77494,Katy,TX,$,4.0,https://www.yelp.com/biz/kimos-grill-katy-2?adjust_creative=OvRCQGmWRwMIvAEILCAnZA&utm_campaign=yelp_api_v3&utm_medium=api_v3_business_search&utm_source=OvRCQGmWRwMIvAEILCAnZA,25,['delivery'],"mediterranean,halal,greek",XbPES8bPJMlcOv1ANmASwQ
Amalfi Ristorante Italiano & Bar,29.7389991526496,-95.4903902865082,False,77057,Houston,TX,$$$,4.0,https://www.yelp.com/biz/amalfi-ristorante-italiano-and-bar-houston?adjust_creative=OvRCQGmWRwMIvAEILCAnZA&utm_campaign=yelp_api_v3&utm_medium=api_v3_business_search&utm_source=OvRCQGmWRwMIvAEILCAnZA,145,['restaurant_reservation'],"italian,bars",m15OdfXB2MFz_wdshwoGUA
Angus Grill Brazilian Steakhouse,29.7381732,-95.4893741,False,77057,Houston,TX,$$$,2.5,https://www.yelp.com/biz/angus-grill-brazilian-steakhouse-houston-3?adjust_creative=OvRCQGmWRwMIvAEILCAnZA&utm_campaign=yelp_api_v3&utm_medium=api_v3_business_search&utm_source=OvRCQGmWRwMIvAEILCAnZA,513,"['pickup', 'delivery']","brazilian,steak",C-fUZt8ebNhak8guQX5B8w
Christie's Seafood & Steaks,29.7373578311257,-95.4896703497028,False,77057,Houston,TX,$$,3.5,https://www.yelp.com/biz/christies-seafood-and-steaks-houston?adjust_creative=OvRCQGmWRwMIvAEILCAnZA&utm_campaign=yelp_api_v3&utm_medium=api_v3_business_search&utm_source=OvRCQGmWRwMIvAEILCAnZA,161,[],"seafood,steak,sandwiches",EqS6fXx7RS1LNZ8kiLi8TQ
Los Cucos Mexican Cafe,29.77675,-95.81278,False,77494,Katy,TX,$$,3.0,https://www.yelp.com/biz/los-cucos-mexican-cafe-katy-4?adjust_creative=OvRCQGmWRwMIvAEILCAnZA&utm_campaign=yelp_api_v3&utm_medium=api_v3_business_search&utm_source=OvRCQGmWRwMIvAEILCAnZA,167,[],"tex-mex,mexican,bars",Thk90pLvIkWpjLk9Wsw8cA
Chacho's Mexican Restaurant,29.7378949,-95.488035,False,77057,Houston,TX,$,3.0,https://www.yelp.com/biz/chachos-mexican-restaurant-houston?adjust_creative=OvRCQGmWRwMIvAEILCAnZA&utm_campaign=yelp_api_v3&utm_medium=api_v3_business_search&utm_source=OvRCQGmWRwMIvAEILCAnZA,492,[],"mexican,breakfast_brunch,drivethrubars",UKRsjAqL3gt9-hbTiFpWMQ
Dish Society,29.75051,-95.47869,False,77057,Houston,TX,$$,4.0,https://www.yelp.com/biz/dish-society-houston?adjust_creative=OvRCQGmWRwMIvAEILCAnZA&utm_campaign=yelp_api_v3&utm_medium=api_v3_business_search&utm_source=OvRCQGmWRwMIvAEILCAnZA,1473,"['pickup', 'delivery']","tradamerican,breakfast_brunch,newamerican",NeTU3xFecz5vIeVWmd8LOw
Zabak's Mediterranean Cafe,29.736982,-95.485076,False,77057,Houston,TX,$,4.5,https://www.yelp.com/biz/zabaks-mediterranean-cafe-houston?adjust_creative=OvRCQGmWRwMIvAEILCAnZA&utm_campaign=yelp_api_v3&utm_medium=api_v3_business_search&utm_source=OvRCQGmWRwMIvAEILCAnZA,425,[],"greek,mediterranean",OD9e8U2J4HnoUFpMtLzaMw
Bijan Persian Grill,29.7177468,-95.5004883,False,77297,Houston,TX,$$,3.5,https://www.yelp.com/biz/bijan-persian-grill-houston?adjust_creative=OvRCQGmWRwMIvAEILCAnZA&utm_campaign=yelp_api_v3&utm_medium=api_v3_business_search&utm_source=OvRCQGmWRwMIvAEILCAnZA,217,"['pickup', 'delivery']","mideastern,persian",53TXd8e-ZJ5gzLv8C9sQGA
Fung's Kitchen,29.702515,-95.51701,False,77074,Houston,TX,$$,3.5,https://www.yelp.com/biz/fungs-kitchen-houston?adjust_creative=OvRCQGmWRwMIvAEILCAnZA&utm_campaign=yelp_api_v3&utm_medium=api_v3_business_search&utm_source=OvRCQGmWRwMIvAEILCAnZA,654,['pickup'],"dimsum,seafood",pF_rCoTWwJ2MP2AneBiIgw
Dandanah Cafe & Grill,29.736833,-95.4836526,False,77057,Houston,TX,$$,3.0,https://www.yelp.com/biz/dandanah-cafe-and-grill-houston?adjust_creative=OvRCQGmWRwMIvAEILCAnZA&utm_campaign=yelp_api_v3&utm_medium=api_v3_business_search&utm_source=OvRCQGmWRwMIvAEILCAnZA,124,"['pickup', 'delivery']","mediterranean,egyptian",V1cXEYGQxrPwhE-W3NU-8A
Chama Gaúcha Brazilian Steakhouse,29.7376852,-95.4831252,False,77057,Houston,TX,$$$,4.5,https://www.yelp.com/biz/chama-ga%C3%BAcha-brazilian-steakhouse-houston-3?adjust_creative=OvRCQGmWRwMIvAEILCAnZA&utm_campaign=yelp_api_v3&utm_medium=api_v3_business_search&utm_source=OvRCQGmWRwMIvAEILCAnZA,1220,[],"brazilian,steak",Y-MMPpw4HSaKPp5C1of9fA
London Sizzler,29.7160849426059,-95.5008298158646,False,77074,Houston,TX,$$,3.5,https://www.yelp.com/biz/london-sizzler-houston?adjust_creative=OvRCQGmWRwMIvAEILCAnZA&utm_campaign=yelp_api_v3&utm_medium=api_v3_business_search&utm_source=OvRCQGmWRwMIvAEILCAnZA,264,[],"indpak,bars",bqq8G0BwYQotbGeu6Ijb1A
Cafe Mawal,29.73366,-95.48486,False,77057,Houston,TX,$$,3.5,https://www.yelp.com/biz/cafe-mawal-houston?adjust_creative=OvRCQGmWRwMIvAEILCAnZA&utm_campaign=yelp_api_v3&utm_medium=api_v3_business_search&utm_source=OvRCQGmWRwMIvAEILCAnZA,260,['pickup'],"mideastern,mediterranean,hookah_bars",gABEBjPdSd_fpgDWa6EHBA
Pappas Bros Steakhouse,29.737449,-95.481804,False,77057,Houston,TX,$$$$,4.5,https://www.yelp.com/biz/pappas-bros-steakhouse-houston-7?adjust_creative=OvRCQGmWRwMIvAEILCAnZA&utm_campaign=yelp_api_v3&utm_medium=api_v3_business_search&utm_source=OvRCQGmWRwMIvAEILCAnZA,850,[],steak,NG_CTxPXJGCU4detUtUqew
Churrascos Champions,29.964618,-95.549562,False,77070,Houston,TX,$$$,3.5,https://www.yelp.com/biz/churrascos-champions-houston?adjust_creative=OvRCQGmWRwMIvAEILCAnZA&utm_campaign=yelp_api_v3&utm_medium=api_v3_business_search&utm_source=OvRCQGmWRwMIvAEILCAnZA,137,[],"seafood,latin,brazilian",vagegq5Xt7EsTSRYJ95_Ww
BJ's Restaurant & Brewhouse,29.9624099745897,-95.5445657258312,False,77070,Houston,TX,$$,3.5,https://www.yelp.com/biz/bjs-restaurant-and-brewhouse-houston?adjust_creative=OvRCQGmWRwMIvAEILCAnZA&utm_campaign=yelp_api_v3&utm_medium=api_v3_business_search&utm_source=OvRCQGmWRwMIvAEILCAnZA,352,['delivery'],"newamerican,breweries,pizza",NDqtl8s9QFIaTgkFf0Fo9A
Sam's Boat,29.732077,-95.479709,False,77057,Houston,TX,$$,3.0,https://www.yelp.com/biz/sams-boat-houston?adjust_creative=OvRCQGmWRwMIvAEILCAnZA&utm_campaign=yelp_api_v3&utm_medium=api_v3_business_search&utm_source=OvRCQGmWRwMIvAEILCAnZA,265,['pickup'],"seafood,sportsbars,tradamerican",3CC2-XvRP4uAsac7wHQClQ
Adair Kitchen,29.748991,-95.466573,False,77057,Houston,TX,$$,4.0,https://www.yelp.com/biz/adair-kitchen-houston?adjust_creative=OvRCQGmWRwMIvAEILCAnZA&utm_campaign=yelp_api_v3&utm_medium=api_v3_business_search&utm_source=OvRCQGmWRwMIvAEILCAnZA,725,[],"newamerican,breakfast_brunch",JFyugR-OI9iGK6b88yaevQ
Truluck's,29.7402018410924,-95.4699522711639,False,77056,Houston,TX,$$$,4.0,https://www.yelp.com/biz/trulucks-houston?adjust_creative=OvRCQGmWRwMIvAEILCAnZA&utm_campaign=yelp_api_v3&utm_medium=api_v3_business_search&utm_source=OvRCQGmWRwMIvAEILCAnZA,638,['pickup'],"seafood,steak",GHwrW5kaLCAtf0yXnETl7A
The Capital Grille,29.7392743,-95.4699321,False,77056,Houston,TX,$$$$,4.0,https://www.yelp.com/biz/the-capital-grille-houston?adjust_creative=OvRCQGmWRwMIvAEILCAnZA&utm_campaign=yelp_api_v3&utm_medium=api_v3_business_search&utm_source=OvRCQGmWRwMIvAEILCAnZA,329,[],"steak,seafood,wine_bars",vyhJjhprQjTd83fXoN4UGQ
True Food Kitchen,29.7498408390785,-95.4623664952454,False,77056,Houston,TX,$$,4.0,https://www.yelp.com/biz/true-food-kitchen-houston?adjust_creative=OvRCQGmWRwMIvAEILCAnZA&utm_campaign=yelp_api_v3&utm_medium=api_v3_business_search&utm_source=OvRCQGmWRwMIvAEILCAnZA,808,[],"newamerican,vegan,vegetarian",Gsdzo5OwpolBuLBU6lRxpA
North Italia,29.7485868638914,-95.4620253208921,False,77056,Houston,TX,$$,4.0,https://www.yelp.com/biz/north-italia-houston?adjust_creative=OvRCQGmWRwMIvAEILCAnZA&utm_campaign=yelp_api_v3&utm_medium=api_v3_business_search&utm_source=OvRCQGmWRwMIvAEILCAnZA,1168,[],"pizza,italian",x4WealiPVG-tzwzhe7nvpw
La Table,29.7473478503039,-95.4616583121282,False,77056,Houston,TX,$$$,4.0,https://www.yelp.com/biz/la-table-houston-3?adjust_creative=OvRCQGmWRwMIvAEILCAnZA&utm_campaign=yelp_api_v3&utm_medium=api_v3_business_search&utm_source=OvRCQGmWRwMIvAEILCAnZA,211,[],"desserts,french,mediterranean",QwRRaMmcqdzIXk1JsUmTsw
Cafe Annie,29.7469449818153,-95.4616328922701,False,77056,Houston,TX,$$$,3.5,https://www.yelp.com/biz/cafe-annie-houston-3?adjust_creative=OvRCQGmWRwMIvAEILCAnZA&utm_campaign=yelp_api_v3&utm_medium=api_v3_business_search&utm_source=OvRCQGmWRwMIvAEILCAnZA,292,[],"newamerican,southern,wine_bars",YkDASGxXduK-JLaJYSuXCg
51fifteen Cuisine and Cocktails,29.7396291893183,-95.4655621379593,False,77056,Houston,TX,$$$,3.5,https://www.yelp.com/biz/51fifteen-cuisine-and-cocktails-houston?adjust_creative=OvRCQGmWRwMIvAEILCAnZA&utm_campaign=yelp_api_v3&utm_medium=api_v3_business_search&utm_source=OvRCQGmWRwMIvAEILCAnZA,218,[],"bars,newamerican,seafood",-kZpB_c3KEnorBEs9HoTow
Red Fish Seafood Grill,29.98003,-95.566261,False,77070,Houston,TX,$$,4.0,https://www.yelp.com/biz/red-fish-seafood-grill-houston?adjust_creative=OvRCQGmWRwMIvAEILCAnZA&utm_campaign=yelp_api_v3&utm_medium=api_v3_business_search&utm_source=OvRCQGmWRwMIvAEILCAnZA,373,[],"sushi,seafood",mXr-PSh20bmBO_MWIF8BTA
The Oceanaire Seafood Room,29.7402571,-95.4639148,False,77056,Houston,TX,$$$,3.5,https://www.yelp.com/biz/the-oceanaire-seafood-room-houston-2?adjust_creative=OvRCQGmWRwMIvAEILCAnZA&utm_campaign=yelp_api_v3&utm_medium=api_v3_business_search&utm_source=OvRCQGmWRwMIvAEILCAnZA,406,[],seafood,2eeDbNOObKw6g3rSYehweQ
Texas Mesquite Grill,29.9802588211593,-95.7174907125852,False,77429,Cypress,TX,$$,3.0,https://www.yelp.com/biz/texas-mesquite-grill-cypress-2?adjust_creative=OvRCQGmWRwMIvAEILCAnZA&utm_campaign=yelp_api_v3&utm_medium=api_v3_business_search&utm_source=OvRCQGmWRwMIvAEILCAnZA,154,['pickup'],"tex-mex,newamerican",z01qK44wFt0KR7RDYQNgKw
Peli Peli,29.7397965769971,-95.4640101607907,False,77056,Houston,TX,$$$,4.5,https://www.yelp.com/biz/peli-peli-houston-5?adjust_creative=OvRCQGmWRwMIvAEILCAnZA&utm_campaign=yelp_api_v3&utm_medium=api_v3_business_search&utm_source=OvRCQGmWRwMIvAEILCAnZA,1305,"['delivery', 'pickup']","southafrican,newamerican,seafood",Jq2NvxWbYMEZhlTygPZUOA
Daily Grill,29.738572,-95.464717,False,77056,Houston,TX,$$,3.5,https://www.yelp.com/biz/daily-grill-houston?adjust_creative=OvRCQGmWRwMIvAEILCAnZA&utm_campaign=yelp_api_v3&utm_medium=api_v3_business_search&utm_source=OvRCQGmWRwMIvAEILCAnZA,168,"['delivery', 'pickup']","tradamerican,breakfast_brunch,cocktailbars",jTWVui5jzTC6zfczPdvPOQ
Del Frisco's Double Eagle Steakhouse,29.7399776,-95.4638549,False,77056,Houston,TX,$$$$,4.0,https://www.yelp.com/biz/del-friscos-double-eagle-steakhouse-houston-2?adjust_creative=OvRCQGmWRwMIvAEILCAnZA&utm_campaign=yelp_api_v3&utm_medium=api_v3_business_search&utm_source=OvRCQGmWRwMIvAEILCAnZA,656,[],"steak,seafood",vbR5vkYLZ6zAeU5PDrfCXQ
Grand Lux Cafe,29.7412259641579,-95.4629382423279,False,77056,Houston,TX,$$,3.5,https://www.yelp.com/biz/grand-lux-cafe-houston?adjust_creative=OvRCQGmWRwMIvAEILCAnZA&utm_campaign=yelp_api_v3&utm_medium=api_v3_business_search&utm_source=OvRCQGmWRwMIvAEILCAnZA,704,[],"desserts,tradamerican,seafood",GK8YWuqjNkVaW1x-D4PdnA
Caracol,29.7433633233118,-95.4613215925904,False,77056,Houston,TX,$$$,4.0,https://www.yelp.com/biz/caracol-houston?adjust_creative=OvRCQGmWRwMIvAEILCAnZA&utm_campaign=yelp_api_v3&utm_medium=api_v3_business_search&utm_source=OvRCQGmWRwMIvAEILCAnZA,869,[],"seafood,mexican,breakfast_brunch",aKTDLQs5ERhVxOhJGYrwTA
Morton's The Steakhouse,29.7417957546011,-95.4617908225555,False,77056,Houston,TX,$$$,3.5,https://www.yelp.com/biz/mortons-the-steakhouse-houston-2?adjust_creative=OvRCQGmWRwMIvAEILCAnZA&utm_campaign=yelp_api_v3&utm_medium=api_v3_business_search&utm_source=OvRCQGmWRwMIvAEILCAnZA,168,[],steak,AnTgeAlqdJNdsuxFwUp08Q
Alexander The Great,29.7351103163519,-95.4657626152039,False,77056,Houston,TX,$$,3.5,https://www.yelp.com/biz/alexander-the-great-houston?adjust_creative=OvRCQGmWRwMIvAEILCAnZA&utm_campaign=yelp_api_v3&utm_medium=api_v3_business_search&utm_source=OvRCQGmWRwMIvAEILCAnZA,189,"['delivery', 'pickup']","greek,seafood",RxbKTpwHwqwHQEIDxspwhA
The Cheesecake Factory,29.739809819657,-95.46240443496,False,77056,Houston,TX,$$,3.0,https://www.yelp.com/biz/the-cheesecake-factory-houston?adjust_creative=OvRCQGmWRwMIvAEILCAnZA&utm_campaign=yelp_api_v3&utm_medium=api_v3_business_search&utm_source=OvRCQGmWRwMIvAEILCAnZA,544,[],"newamerican,desserts",V9HfzKhSqmWiQiZkYpk6IQ
Bazille,29.7357782,-95.4646126,False,77056,Houston,TX,$$,4.0,https://www.yelp.com/biz/bazille-houston?adjust_creative=OvRCQGmWRwMIvAEILCAnZA&utm_campaign=yelp_api_v3&utm_medium=api_v3_business_search&utm_source=OvRCQGmWRwMIvAEILCAnZA,117,[],"newamerican,cocktailbars",N5G3jq94_KFxg0PKHKXuwQ
Mezzanotte Ristorante,29.99468,-95.62486,False,77429,Cypress,TX,$$,4.0,https://www.yelp.com/biz/mezzanotte-ristorante-cypress-26?adjust_creative=OvRCQGmWRwMIvAEILCAnZA&utm_campaign=yelp_api_v3&utm_medium=api_v3_business_search&utm_source=OvRCQGmWRwMIvAEILCAnZA,76,[],"italian,tapasmallplates,wine_bars",QBXK1U9-_mVWs7iTyJopdA
Nick's Italian Restaurant,29.6465592184613,-95.6786794447686,False,77407,Richmond,TX,$$,4.0,https://www.yelp.com/biz/nicks-italian-restaurant-richmond?adjust_creative=OvRCQGmWRwMIvAEILCAnZA&utm_campaign=yelp_api_v3&utm_medium=api_v3_business_search&utm_source=OvRCQGmWRwMIvAEILCAnZA,201,[],"italian,seafood",n3dzd8sCkL-1a4CUq9REXA
Five Nine Lounge,29.6515339,-95.5689958,False,77099,Houston,TX,$$,2.5,https://www.yelp.com/biz/five-nine-lounge-houston-2?adjust_creative=OvRCQGmWRwMIvAEILCAnZA&utm_campaign=yelp_api_v3&utm_medium=api_v3_business_search&utm_source=OvRCQGmWRwMIvAEILCAnZA,19,[],"lounges,hookah_bars,mediterranean",SHLeYDBGL9bNV8RNFbS8hg
The Seafood Spot,29.65091,-95.56711,False,77031,Houston,TX,$$,4.0,https://www.yelp.com/biz/the-seafood-spot-houston?adjust_creative=OvRCQGmWRwMIvAEILCAnZA&utm_campaign=yelp_api_v3&utm_medium=api_v3_business_search&utm_source=OvRCQGmWRwMIvAEILCAnZA,77,[],"seafood,cajun,burgers",03fIEBvPAqWfRzmac8RpSA
Black's Market Table,29.99709,-95.59242,False,77070,Houston,TX,$$,4.0,https://www.yelp.com/biz/blacks-market-table-houston-3?adjust_creative=OvRCQGmWRwMIvAEILCAnZA&utm_campaign=yelp_api_v3&utm_medium=api_v3_business_search&utm_source=OvRCQGmWRwMIvAEILCAnZA,211,[],"newamerican,bars",i4PD9NvLb5qhFKLf-rvrkg
Avenida Brazil Churrascaria Steakhouse,29.64814,-95.573042,False,77477,Meadows Place,TX,$$$,4.5,https://www.yelp.com/biz/avenida-brazil-churrascaria-steakhouse-meadows-place?adjust_creative=OvRCQGmWRwMIvAEILCAnZA&utm_campaign=yelp_api_v3&utm_medium=api_v3_business_search&utm_source=OvRCQGmWRwMIvAEILCAnZA,343,[],"brazilian,steak,venues",fwoycyqtaOsU2cG_M61CYw
Peli Peli,29.9942567100824,-95.5721336603165,False,77070,Houston,TX,$$$,4.5,https://www.yelp.com/biz/peli-peli-houston-6?adjust_creative=OvRCQGmWRwMIvAEILCAnZA&utm_campaign=yelp_api_v3&utm_medium=api_v3_business_search&utm_source=OvRCQGmWRwMIvAEILCAnZA,1135,"['delivery', 'pickup']","newamerican,southafrican,steak",pV-ncl1zrCfKQnGnjwjvWw
Perry's Steakhouse & Grille - Champions,29.989015,-95.555922,False,77070,Houston,TX,$$$,4.0,https://www.yelp.com/biz/perrys-steakhouse-and-grille-champions-houston-2?adjust_creative=OvRCQGmWRwMIvAEILCAnZA&utm_campaign=yelp_api_v3&utm_medium=api_v3_business_search&utm_source=OvRCQGmWRwMIvAEILCAnZA,219,[],"steak,seafood,tradamerican",zpVIQBNPh8yvwtlI5VyOkA
Mia Bella Trattoria,29.9947455438592,-95.5719778441958,False,77070,Houston,TX,$$,3.5,https://www.yelp.com/biz/mia-bella-trattoria-houston-11?adjust_creative=OvRCQGmWRwMIvAEILCAnZA&utm_campaign=yelp_api_v3&utm_medium=api_v3_business_search&utm_source=OvRCQGmWRwMIvAEILCAnZA,355,"['delivery', 'pickup']",italian,AEtXvhDMnAHdLSpq2AXSKQ
"Gauchos Do Sul, Brazilian Steakhouse",29.9953109756546,-95.5715316796928,False,77070,Houston,TX,$$$,4.5,https://www.yelp.com/biz/gauchos-do-sul-houston-2?adjust_creative=OvRCQGmWRwMIvAEILCAnZA&utm_campaign=yelp_api_v3&utm_medium=api_v3_business_search&utm_source=OvRCQGmWRwMIvAEILCAnZA,201,[],"steak,brazilian,salad",3_Qqf53FV-UE0cuVuXBf5A
Genesis Steakhouse & Wine Bar,29.70336,-95.47523,False,77081,Houston,TX,$$$,4.0,https://www.yelp.com/biz/genesis-steakhouse-and-wine-bar-houston?adjust_creative=OvRCQGmWRwMIvAEILCAnZA&utm_campaign=yelp_api_v3&utm_medium=api_v3_business_search&utm_source=OvRCQGmWRwMIvAEILCAnZA,92,[],"steak,wine_bars,kosher",zTZBw4UOCQTrW0CAeT7WcA
Regal Seafood House,29.642343,-95.5792911,False,77477,Stafford,TX,$$,3.0,https://www.yelp.com/biz/regal-seafood-house-stafford?adjust_creative=OvRCQGmWRwMIvAEILCAnZA&utm_campaign=yelp_api_v3&utm_medium=api_v3_business_search&utm_source=OvRCQGmWRwMIvAEILCAnZA,158,[],"chinese,seafood",2Qu5VsJvpfGfWtJNyS3fvw
Blue Water Seafood Restaurant,29.975212,-95.520634,False,77069,Houston,TX,$$,4.0,https://www.yelp.com/biz/blue-water-seafood-restaurant-houston-3?adjust_creative=OvRCQGmWRwMIvAEILCAnZA&utm_campaign=yelp_api_v3&utm_medium=api_v3_business_search&utm_source=OvRCQGmWRwMIvAEILCAnZA,243,[],"seafood,cajun",X57V0vgr54a4yEOPyoCZqg
Ambriza Social Mexican Kitchen,29.999963,-95.5619648,False,77070,Houston,TX,$$,4.5,https://www.yelp.com/biz/ambriza-social-mexican-kitchen-houston-4?adjust_creative=OvRCQGmWRwMIvAEILCAnZA&utm_campaign=yelp_api_v3&utm_medium=api_v3_business_search&utm_source=OvRCQGmWRwMIvAEILCAnZA,465,['pickup'],"breakfast_brunch,cocktailbars",vnoo6odpReNd-EgjT-XAtA
Cool Runnings Jamaican Grill,29.656182,-95.522487,False,77071,Houston,TX,$$,4.0,https://www.yelp.com/biz/cool-runnings-jamaican-grill-houston-2?adjust_creative=OvRCQGmWRwMIvAEILCAnZA&utm_campaign=yelp_api_v3&utm_medium=api_v3_business_search&utm_source=OvRCQGmWRwMIvAEILCAnZA,437,[],"caribbean,bars,seafood",7BCRsCH3dTswfAuNw_4Lcw
Carrabba's Italian Grill,29.9805798,-95.5119072,False,77069,Houston,TX,$$,3.5,https://www.yelp.com/biz/carrabbas-italian-grill-houston-15?adjust_creative=OvRCQGmWRwMIvAEILCAnZA&utm_campaign=yelp_api_v3&utm_medium=api_v3_business_search&utm_source=OvRCQGmWRwMIvAEILCAnZA,111,['delivery'],"italian,seafood",isvx395eTrkLqHM79BXWbA
Kabob Korner,29.9599948,-95.4802744,False,77066,Houston,TX,$$,4.0,https://www.yelp.com/biz/kabob-korner-houston-2?adjust_creative=OvRCQGmWRwMIvAEILCAnZA&utm_campaign=yelp_api_v3&utm_medium=api_v3_business_search&utm_source=OvRCQGmWRwMIvAEILCAnZA,95,['pickup'],"mediterranean,halal,kebab",X52ciDQ84xO6Ot01pCd0FQ
Cajun Crawfish,29.981821,-95.492653,False,77014,Houston,TX,$$,4.5,https://www.yelp.com/biz/cajun-crawfish-houston-2?adjust_creative=OvRCQGmWRwMIvAEILCAnZA&utm_campaign=yelp_api_v3&utm_medium=api_v3_business_search&utm_source=OvRCQGmWRwMIvAEILCAnZA,123,[],cajun,PrHS1G5_XLEJHmvAEjL41w
Ragin' Cajun Restaurant - The Original,29.73283,-95.44908,False,77027,Houston,TX,$$,3.5,https://www.yelp.com/biz/ragin-cajun-restaurant-the-original-houston?adjust_creative=OvRCQGmWRwMIvAEILCAnZA&utm_campaign=yelp_api_v3&utm_medium=api_v3_business_search&utm_source=OvRCQGmWRwMIvAEILCAnZA,434,[],"cajun,seafood,sportsbars",Ex1h-4bLEQW4v8-b-kYTLg
Grotto Ristorante,29.740495,-95.456781,False,77027,Houston,TX,$$,3.5,https://www.yelp.com/biz/grotto-ristorante-houston?adjust_creative=OvRCQGmWRwMIvAEILCAnZA&utm_campaign=yelp_api_v3&utm_medium=api_v3_business_search&utm_source=OvRCQGmWRwMIvAEILCAnZA,288,[],"italian,pizza",516gtqnFG9C5aORpzHD4zA
Piatto Ristorante,29.737821,-95.459841,False,77056,Houston,TX,$$,4.0,https://www.yelp.com/biz/piatto-ristorante-houston?adjust_creative=OvRCQGmWRwMIvAEILCAnZA&utm_campaign=yelp_api_v3&utm_medium=api_v3_business_search&utm_source=OvRCQGmWRwMIvAEILCAnZA,109,['pickup'],italian,GJwqAynHNqaEm4pixA9meA
Seasons 52,29.7415521341054,-95.4521601294998,False,77027,Houston,TX,$$,4.0,https://www.yelp.com/biz/seasons-52-houston-3?adjust_creative=OvRCQGmWRwMIvAEILCAnZA&utm_campaign=yelp_api_v3&utm_medium=api_v3_business_search&utm_source=OvRCQGmWRwMIvAEILCAnZA,483,[],"newamerican,wine_bars,seafood",ZiLF5UrGsI1d7u7XXYaDmg
Steak 48,29.74269,-95.45309,False,77027,Houston,TX,$$$$,4.5,https://www.yelp.com/biz/steak-48-houston-2?adjust_creative=OvRCQGmWRwMIvAEILCAnZA&utm_campaign=yelp_api_v3&utm_medium=api_v3_business_search&utm_source=OvRCQGmWRwMIvAEILCAnZA,701,[],"steak,seafood,bars",iGMTbYr2FTFHc6vEIn51_Q
Smith & Wollensky,29.7412021,-95.4455114,False,77027,Houston,TX,$$$,3.0,https://www.yelp.com/biz/smith-and-wollensky-houston?adjust_creative=OvRCQGmWRwMIvAEILCAnZA&utm_campaign=yelp_api_v3&utm_medium=api_v3_business_search&utm_source=OvRCQGmWRwMIvAEILCAnZA,223,[],"steak,seafood",QjKqkZgjl98PJDoAP0N0ww
Pizzeria Solario,29.7347932634449,-95.4411491633683,False,77027,Houston,TX,$$,4.0,https://www.yelp.com/biz/pizzeria-solario-houston?adjust_creative=OvRCQGmWRwMIvAEILCAnZA&utm_campaign=yelp_api_v3&utm_medium=api_v3_business_search&utm_source=OvRCQGmWRwMIvAEILCAnZA,251,[],"pizza,italian,salad",cyz10FgyuZuTMDUCuCey-g
Buffalo Wild Wings,29.7329427,-95.4413251,False,77027,Houston,TX,$$,2.0,https://www.yelp.com/biz/buffalo-wild-wings-houston-9?adjust_creative=OvRCQGmWRwMIvAEILCAnZA&utm_campaign=yelp_api_v3&utm_medium=api_v3_business_search&utm_source=OvRCQGmWRwMIvAEILCAnZA,281,['delivery'],"chicken_wings,sportsbars,tradamerican",hs2IQqvO5J4F7K_GcsDdfw
Roka Akor - Houston,29.7387,-95.44081,False,77027,Houston,TX,$$$,4.5,https://www.yelp.com/biz/roka-akor-houston-houston-3?adjust_creative=OvRCQGmWRwMIvAEILCAnZA&utm_campaign=yelp_api_v3&utm_medium=api_v3_business_search&utm_source=OvRCQGmWRwMIvAEILCAnZA,182,[],"sushi,steak,japanese",PylPuGbVyXf3idPTJIToRQ
Zoës Kitchen,29.74213,-95.44284,False,77027,Houston,TX,$$,4.0,https://www.yelp.com/biz/zo%C3%ABs-kitchen-houston-16?adjust_creative=OvRCQGmWRwMIvAEILCAnZA&utm_campaign=yelp_api_v3&utm_medium=api_v3_business_search&utm_source=OvRCQGmWRwMIvAEILCAnZA,98,[],"mediterranean,greek,sandwiches",CniL0Mpi-VceOsoJbEWbdQ
Liberty Kitchen & Oysterette,29.7469456093221,-95.4497998117782,False,77027,Houston,TX,$$,4.0,https://www.yelp.com/biz/liberty-kitchen-and-oysterette-houston?adjust_creative=OvRCQGmWRwMIvAEILCAnZA&utm_campaign=yelp_api_v3&utm_medium=api_v3_business_search&utm_source=OvRCQGmWRwMIvAEILCAnZA,641,[],"newamerican,seafood,breakfast_brunch",EtbyqGgGm0XZobXVU6YQog
Yia Yia Mary's,29.74753,-95.45791,False,77056,Houston,TX,$$,3.5,https://www.yelp.com/biz/yia-yia-marys-houston-2?adjust_creative=OvRCQGmWRwMIvAEILCAnZA&utm_campaign=yelp_api_v3&utm_medium=api_v3_business_search&utm_source=OvRCQGmWRwMIvAEILCAnZA,621,[],"greek,mediterranean,bars",K0guUue4HwFQTB-eGaF1-g
Boudreaux's Cajun Kitchen,29.72298,-95.459121,False,77081,Houston,TX,$$,3.5,https://www.yelp.com/biz/boudreauxs-cajun-kitchen-houston-9?adjust_creative=OvRCQGmWRwMIvAEILCAnZA&utm_campaign=yelp_api_v3&utm_medium=api_v3_business_search&utm_source=OvRCQGmWRwMIvAEILCAnZA,146,"['pickup', 'delivery']","cajun,seafood,southern",KDgVUk2CMVv6HhbcgHiWhg
Masraff's,29.74813,-95.46087,False,77056,Houston,TX,$$$,4.5,https://www.yelp.com/biz/masraffs-houston?adjust_creative=OvRCQGmWRwMIvAEILCAnZA&utm_campaign=yelp_api_v3&utm_medium=api_v3_business_search&utm_source=OvRCQGmWRwMIvAEILCAnZA,790,[],"newamerican,seafood",fW5EvLj1SlUrIfVgfBAKaw
Ouisie's Table,29.746008,-95.443169,False,77027,Houston,TX,$$$,3.5,https://www.yelp.com/biz/ouisies-table-houston?adjust_creative=OvRCQGmWRwMIvAEILCAnZA&utm_campaign=yelp_api_v3&utm_medium=api_v3_business_search&utm_source=OvRCQGmWRwMIvAEILCAnZA,431,"['pickup', 'delivery']","newamerican,southern,venues",O65-gMFpU01-OoL_h64snQ
Oishii,29.7330860390498,-95.4368909182455,False,77046,Houston,TX,$$,4.0,https://www.yelp.com/biz/oishii-houston?adjust_creative=OvRCQGmWRwMIvAEILCAnZA&utm_campaign=yelp_api_v3&utm_medium=api_v3_business_search&utm_source=OvRCQGmWRwMIvAEILCAnZA,1074,[],"sushi,japanese,bars",ghFcnp8NGkHbSUBYLONjww
Tony's,29.73204,-95.436,False,77046,Houston,TX,$$$$,3.5,https://www.yelp.com/biz/tonys-houston-2?adjust_creative=OvRCQGmWRwMIvAEILCAnZA&utm_campaign=yelp_api_v3&utm_medium=api_v3_business_search&utm_source=OvRCQGmWRwMIvAEILCAnZA,281,[],"italian,catering,venues",tKg_x7H5NsZ8ZUQ80NVzlA
Fresco Cafe Italiano,29.7287262957213,-95.4316117488783,False,77027,Houston,TX,$$,4.5,https://www.yelp.com/biz/fresco-cafe-italiano-houston?adjust_creative=OvRCQGmWRwMIvAEILCAnZA&utm_campaign=yelp_api_v3&utm_medium=api_v3_business_search&utm_source=OvRCQGmWRwMIvAEILCAnZA,119,[],"italian,pastashops,pizza",ZkM_qfaCNWRCb0vb3T813g
Songkran Thai Kitchen,29.7565604,-95.4573055,False,77056,Houston,TX,$$,4.0,https://www.yelp.com/biz/songkran-thai-kitchen-houston?adjust_creative=OvRCQGmWRwMIvAEILCAnZA&utm_campaign=yelp_api_v3&utm_medium=api_v3_business_search&utm_source=OvRCQGmWRwMIvAEILCAnZA,301,[],"thai,bars",zqERJOhGitMgPSfN373MhA
State of Grace,29.7424624840221,-95.4252861972305,False,77098,Houston,TX,$$$,4.5,https://www.yelp.com/biz/state-of-grace-houston?adjust_creative=OvRCQGmWRwMIvAEILCAnZA&utm_campaign=yelp_api_v3&utm_medium=api_v3_business_search&utm_source=OvRCQGmWRwMIvAEILCAnZA,478,[],"southern,newamerican,seafood",vg2_-zFEzbKJb5MKyU9q4g
Chuy's,29.742689,-95.420446,False,77098,Houston,TX,$$,3.5,https://www.yelp.com/biz/chuys-houston?adjust_creative=OvRCQGmWRwMIvAEILCAnZA&utm_campaign=yelp_api_v3&utm_medium=api_v3_business_search&utm_source=OvRCQGmWRwMIvAEILCAnZA,648,['delivery'],"mexican,tex-mex,bars",ElveZlpnnOh0vhJdx5ixdA
Goode Company Seafood,29.7285128246383,-95.4203385626453,False,77098,Houston,TX,$$,4.0,https://www.yelp.com/biz/goode-company-seafood-houston-3?adjust_creative=OvRCQGmWRwMIvAEILCAnZA&utm_campaign=yelp_api_v3&utm_medium=api_v3_business_search&utm_source=OvRCQGmWRwMIvAEILCAnZA,487,[],seafood,_rK2gqSh8E2aTLjbHw4InQ
Eddie V's Prime Seafood,29.7402734338612,-95.4190848558197,False,77098,Houston,TX,$$$,4.5,https://www.yelp.com/biz/eddie-vs-prime-seafood-houston-4?adjust_creative=OvRCQGmWRwMIvAEILCAnZA&utm_campaign=yelp_api_v3&utm_medium=api_v3_business_search&utm_source=OvRCQGmWRwMIvAEILCAnZA,537,[],"seafood,steak,lounges",qlMdfSUSzLGhtmyg6xXlCA
Houston's Restaurant,29.72891,-95.4188999,False,77098,Houston,TX,$$$,4.0,https://www.yelp.com/biz/houstons-restaurant-houston-3?adjust_creative=OvRCQGmWRwMIvAEILCAnZA&utm_campaign=yelp_api_v3&utm_medium=api_v3_business_search&utm_source=OvRCQGmWRwMIvAEILCAnZA,524,[],"tradamerican,newamerican,steak",lYaf1HjE6c_PN9hmKnbkrw
The Union Kitchen,29.7057177104364,-95.4420052760595,False,77025,Houston,TX,$$,3.5,https://www.yelp.com/biz/the-union-kitchen-houston?adjust_creative=OvRCQGmWRwMIvAEILCAnZA&utm_campaign=yelp_api_v3&utm_medium=api_v3_business_search&utm_source=OvRCQGmWRwMIvAEILCAnZA,472,[],newamerican,rawQYpa6tu-rOAqmCYOeBw
Pappadeaux Seafood Kitchen,29.734771,-95.416465,False,77098,Houston,TX,$$,3.5,https://www.yelp.com/biz/pappadeaux-seafood-kitchen-houston-20?adjust_creative=OvRCQGmWRwMIvAEILCAnZA&utm_campaign=yelp_api_v3&utm_medium=api_v3_business_search&utm_source=OvRCQGmWRwMIvAEILCAnZA,380,[],"seafood,cajun",VTc8voZXzWEOQhIvQJe0RQ
Fleming's Prime Steakhouse & Wine Bar- Houston,29.738118,-95.416578,False,77098,Houston,TX,$$$,4.0,https://www.yelp.com/biz/flemings-prime-steakhouse-and-wine-bar-houston-houston?adjust_creative=OvRCQGmWRwMIvAEILCAnZA&utm_campaign=yelp_api_v3&utm_medium=api_v3_business_search&utm_source=OvRCQGmWRwMIvAEILCAnZA,299,[],"steak,wine_bars,seafood",1Q5a1_8kthcjJwCnEIxXRQ
benjy's,29.719421,-95.416392,False,77005,Houston,TX,$$,4.0,https://www.yelp.com/biz/benjys-houston-3?adjust_creative=OvRCQGmWRwMIvAEILCAnZA&utm_campaign=yelp_api_v3&utm_medium=api_v3_business_search&utm_source=OvRCQGmWRwMIvAEILCAnZA,1019,[],"lounges,newamerican",YDD0n84xkd_nHmkmPorG5Q
Antica Osteria,29.725282,-95.413276,False,77005,Houston,TX,$$$,4.0,https://www.yelp.com/biz/antica-osteria-houston?adjust_creative=OvRCQGmWRwMIvAEILCAnZA&utm_campaign=yelp_api_v3&utm_medium=api_v3_business_search&utm_source=OvRCQGmWRwMIvAEILCAnZA,280,[],italian,zYymsWEVEy02KA2KES1faw
The Davenport,29.73403,-95.4112899,False,77098,Houston,TX,$$,4.0,https://www.yelp.com/biz/the-davenport-houston-2?adjust_creative=OvRCQGmWRwMIvAEILCAnZA&utm_campaign=yelp_api_v3&utm_medium=api_v3_business_search&utm_source=OvRCQGmWRwMIvAEILCAnZA,216,[],lounges,pk_E0Q4Lw4IM2on2oHfPHw
Coppa Osteria,29.7189381,-95.4149874,False,77005,Houston,TX,$$,3.5,https://www.yelp.com/biz/coppa-osteria-houston?adjust_creative=OvRCQGmWRwMIvAEILCAnZA&utm_campaign=yelp_api_v3&utm_medium=api_v3_business_search&utm_source=OvRCQGmWRwMIvAEILCAnZA,379,[],italian,tDnStTVLrLxABBxVqvThgg
Hunan Village,29.73621,-95.41049,False,77098,Houston,TX,$,3.0,https://www.yelp.com/biz/hunan-village-houston-2?adjust_creative=OvRCQGmWRwMIvAEILCAnZA&utm_campaign=yelp_api_v3&utm_medium=api_v3_business_search&utm_source=OvRCQGmWRwMIvAEILCAnZA,175,"['pickup', 'delivery']","chinese,seafood,soup",QutIjm7sJjAiQ4P9YzUQYA
Pappas Seafood House,29.73907,-95.41042,False,77098,Houston,TX,$$,4.0,https://www.yelp.com/biz/pappas-seafood-house-houston-15?adjust_creative=OvRCQGmWRwMIvAEILCAnZA&utm_campaign=yelp_api_v3&utm_medium=api_v3_business_search&utm_source=OvRCQGmWRwMIvAEILCAnZA,169,[],seafood,LrhhqfX8d1FFE5sIZGrCYg
Brenner's on the Bayou,29.7595459124491,-95.4199138920306,False,77007,Houston,TX,$$$,4.0,https://www.yelp.com/biz/brenners-on-the-bayou-houston-2?adjust_creative=OvRCQGmWRwMIvAEILCAnZA&utm_campaign=yelp_api_v3&utm_medium=api_v3_business_search&utm_source=OvRCQGmWRwMIvAEILCAnZA,526,[],"steak,newamerican,seafood",IwdIMYXZOhhkYmnzXLAMbQ
D'Amico's Italian Market Cafe,29.7163985,-95.4150549,False,77005,Houston,TX,$$,3.5,https://www.yelp.com/biz/d-amicos-italian-market-cafe-houston?adjust_creative=OvRCQGmWRwMIvAEILCAnZA&utm_campaign=yelp_api_v3&utm_medium=api_v3_business_search&utm_source=OvRCQGmWRwMIvAEILCAnZA,304,[],italian,z1J0lVDuy7X7g9Xeha3jKg
Island Grill,29.7170844423813,-95.4142375909825,False,77005,Houston,TX,$$,4.0,https://www.yelp.com/biz/island-grill-houston-6?adjust_creative=OvRCQGmWRwMIvAEILCAnZA&utm_campaign=yelp_api_v3&utm_medium=api_v3_business_search&utm_source=OvRCQGmWRwMIvAEILCAnZA,60,[],"mediterranean,juicebars,tradamerican",8Va6d8a9QLfsAOEkI7qDig
Sud Italia Ristorante,29.7149,-95.41475,False,77005,Houston,TX,$$$,4.0,https://www.yelp.com/biz/sud-italia-ristorante-houston?adjust_creative=OvRCQGmWRwMIvAEILCAnZA&utm_campaign=yelp_api_v3&utm_medium=api_v3_business_search&utm_source=OvRCQGmWRwMIvAEILCAnZA,190,"['pickup', 'delivery']","seafood,sicilian",F68WYHOhPQV3APC-jPXUyQ
Black Walnut Café,29.7616253,-95.4177628,False,77007,Houston,TX,$$,3.5,https://www.yelp.com/biz/black-walnut-caf%C3%A9-houston-8?adjust_creative=OvRCQGmWRwMIvAEILCAnZA&utm_campaign=yelp_api_v3&utm_medium=api_v3_business_search&utm_source=OvRCQGmWRwMIvAEILCAnZA,369,[],"newamerican,breakfast_brunch,cafes",XHdD2MTLLQkskrV45vWPqQ
La Fresca Pizza,29.7076867,-95.4180686,False,77005,Houston,TX,$,4.0,https://www.yelp.com/biz/la-fresca-pizza-houston-2?adjust_creative=OvRCQGmWRwMIvAEILCAnZA&utm_campaign=yelp_api_v3&utm_medium=api_v3_business_search&utm_source=OvRCQGmWRwMIvAEILCAnZA,141,"['pickup', 'delivery']","pizza,italian",CwE4HOuj9Ww-pUEx8JauLw
Paulie's,29.7428749,-95.4064275,False,77098,Houston,TX,$$,4.0,https://www.yelp.com/biz/paulies-houston?adjust_creative=OvRCQGmWRwMIvAEILCAnZA&utm_campaign=yelp_api_v3&utm_medium=api_v3_business_search&utm_source=OvRCQGmWRwMIvAEILCAnZA,680,[],"sandwiches,italian,coffee",0wemURLMYj9YkkXJI2aS6w
The Raven Grill,29.72589,-95.40649,False,77005,Houston,TX,$$,4.0,https://www.yelp.com/biz/the-raven-grill-houston?adjust_creative=OvRCQGmWRwMIvAEILCAnZA&utm_campaign=yelp_api_v3&utm_medium=api_v3_business_search&utm_source=OvRCQGmWRwMIvAEILCAnZA,324,[],newamerican,JyOh6zIV1sGINuEnzOBckw
La Griglia,29.75356,-95.40889,False,77019,Houston,TX,$$$,4.0,https://www.yelp.com/biz/la-griglia-houston?adjust_creative=OvRCQGmWRwMIvAEILCAnZA&utm_campaign=yelp_api_v3&utm_medium=api_v3_business_search&utm_source=OvRCQGmWRwMIvAEILCAnZA,242,[],"italian,pizza,seafood",nx6OjaEFRQO2kmzChiSPcQ
Prima Pasta Restaurant,29.7054576873779,-95.4179534912109,False,77030,Houston,TX,$$,3.5,https://www.yelp.com/biz/prima-pasta-restaurant-houston?adjust_creative=OvRCQGmWRwMIvAEILCAnZA&utm_campaign=yelp_api_v3&utm_medium=api_v3_business_search&utm_source=OvRCQGmWRwMIvAEILCAnZA,159,"['pickup', 'delivery']","italian,pizza",dSxmaw6NBLj_1nATayEgeQ
Riel,29.74456,-95.40489,False,77019,Houston,TX,$$$,4.0,https://www.yelp.com/biz/riel-houston-3?adjust_creative=OvRCQGmWRwMIvAEILCAnZA&utm_campaign=yelp_api_v3&utm_medium=api_v3_business_search&utm_source=OvRCQGmWRwMIvAEILCAnZA,158,[],"newamerican,ukrainian,modern_european",E_fLWfnyIIx73R7cHjYfjA
Backstreet Café,29.75533,-95.40863,False,77019,Houston,TX,$$,4.0,https://www.yelp.com/biz/backstreet-caf%C3%A9-houston-2?adjust_creative=OvRCQGmWRwMIvAEILCAnZA&utm_campaign=yelp_api_v3&utm_medium=api_v3_business_search&utm_source=OvRCQGmWRwMIvAEILCAnZA,1193,[],newamerican,fRxG_uD4RMR6Dehlt1Kcfg
Brasserie 19,29.7531949,-95.40723,False,77019,Houston,TX,$$$,3.5,https://www.yelp.com/biz/brasserie-19-houston?adjust_creative=OvRCQGmWRwMIvAEILCAnZA&utm_campaign=yelp_api_v3&utm_medium=api_v3_business_search&utm_source=OvRCQGmWRwMIvAEILCAnZA,519,[],"french,brasseries,breakfast_brunch",x2eS2SU9BoVeA9NTXt9sCg
Tapester's Grill,29.6896,-95.45222,False,77096,Houston,TX,$$,4.0,https://www.yelp.com/biz/tapesters-grill-houston-2?adjust_creative=OvRCQGmWRwMIvAEILCAnZA&utm_campaign=yelp_api_v3&utm_medium=api_v3_business_search&utm_source=OvRCQGmWRwMIvAEILCAnZA,252,"['pickup', 'delivery']","tradamerican,breakfast_brunch,wine_bars",u3Lrn5xD-oe0IB3bF-iWOw
Fadi's Meyerland Mediterranean Grill,29.6894149,-95.4600067,False,77096,Houston,TX,$$,4.5,https://www.yelp.com/biz/fadis-meyerland-mediterranean-grill-houston?adjust_creative=OvRCQGmWRwMIvAEILCAnZA&utm_campaign=yelp_api_v3&utm_medium=api_v3_business_search&utm_source=OvRCQGmWRwMIvAEILCAnZA,582,[],"mediterranean,mideastern,cafeteria",njEQBx-jhqfqCBF79_SgJg
Just Dinner,29.7484951019287,-95.4019088745117,False,77006,Houston,TX,$$$,4.0,https://www.yelp.com/biz/just-dinner-houston-2?adjust_creative=OvRCQGmWRwMIvAEILCAnZA&utm_campaign=yelp_api_v3&utm_medium=api_v3_business_search&utm_source=OvRCQGmWRwMIvAEILCAnZA,331,[],newamerican,Sly3dvHB32hVe5kFkn2xAQ
El Pueblito Place,29.734281,-95.398634,False,77006,Houston,TX,$$,3.0,https://www.yelp.com/biz/el-pueblito-place-houston?adjust_creative=OvRCQGmWRwMIvAEILCAnZA&utm_campaign=yelp_api_v3&utm_medium=api_v3_business_search&utm_source=OvRCQGmWRwMIvAEILCAnZA,241,['pickup'],"mexican,seafood,latin",z23QUl8-OGhiF5B2tJBeYA
Bistro Menil,29.73824,-95.39844,False,77006,Houston,TX,$$,3.5,https://www.yelp.com/biz/bistro-menil-houston-2?adjust_creative=OvRCQGmWRwMIvAEILCAnZA&utm_campaign=yelp_api_v3&utm_medium=api_v3_business_search&utm_source=OvRCQGmWRwMIvAEILCAnZA,236,[],"bars,modern_european,tradamerican",Z34OSSXpmeZSP2nBXVli5g
Cafe Ginger,29.7533149,-95.4012396,False,77019,Houston,TX,$$,4.0,https://www.yelp.com/biz/cafe-ginger-houston?adjust_creative=OvRCQGmWRwMIvAEILCAnZA&utm_campaign=yelp_api_v3&utm_medium=api_v3_business_search&utm_source=OvRCQGmWRwMIvAEILCAnZA,327,[],"chinese,sushi,seafood",f7sAdd5EhXDUp0vBTUs7qw
Romano's Pizza,29.7544062271704,-95.4004679195084,False,77019,Houston,TX,$$,4.0,https://www.yelp.com/biz/romanos-pizza-houston?adjust_creative=OvRCQGmWRwMIvAEILCAnZA&utm_campaign=yelp_api_v3&utm_medium=api_v3_business_search&utm_source=OvRCQGmWRwMIvAEILCAnZA,345,[],"pizza,italian",5YpB7TebW0tKRhbwEJTNGg
Federal American Grill,29.7670059204102,-95.409065246582,False,77007,Houston,TX,$$,4.0,https://www.yelp.com/biz/federal-american-grill-houston-3?adjust_creative=OvRCQGmWRwMIvAEILCAnZA&utm_campaign=yelp_api_v3&utm_medium=api_v3_business_search&utm_source=OvRCQGmWRwMIvAEILCAnZA,415,"['pickup', 'delivery']","newamerican,burgers,cocktailbars",yxLvyIHTYXiZB6-y1lFp8A
The Kitchen at the Dunlavy,29.7610702114268,-95.4018420158691,False,77019,Houston,TX,$$,4.0,https://www.yelp.com/biz/the-kitchen-at-the-dunlavy-houston-5?adjust_creative=OvRCQGmWRwMIvAEILCAnZA&utm_campaign=yelp_api_v3&utm_medium=api_v3_business_search&utm_source=OvRCQGmWRwMIvAEILCAnZA,585,[],"newamerican,breakfast_brunch",jxbLVyYjxrYEDQNQeEf0Xw
Tony Mandola's,29.75576,-95.3984,False,77019,Houston,TX,$$$,3.5,https://www.yelp.com/biz/tony-mandolas-houston-2?adjust_creative=OvRCQGmWRwMIvAEILCAnZA&utm_campaign=yelp_api_v3&utm_medium=api_v3_business_search&utm_source=OvRCQGmWRwMIvAEILCAnZA,276,[],"southern,seafood,cajun",t16SdMWZBdRAmBYDEQFAsQ
MAX's Wine Dive,29.7708299,-95.4090042,False,77007,Houston,TX,$$,3.5,https://www.yelp.com/biz/maxs-wine-dive-houston?adjust_creative=OvRCQGmWRwMIvAEILCAnZA&utm_campaign=yelp_api_v3&utm_medium=api_v3_business_search&utm_source=OvRCQGmWRwMIvAEILCAnZA,1000,[],"wine_bars,newamerican,breakfast_brunch",iWbVwTLPE50Jc421QCJyaA
Kitchen 713,29.7703209112455,-95.4078681394458,False,77007,Houston,TX,$$,4.0,https://www.yelp.com/biz/kitchen-713-houston-3?adjust_creative=OvRCQGmWRwMIvAEILCAnZA&utm_campaign=yelp_api_v3&utm_medium=api_v3_business_search&utm_source=OvRCQGmWRwMIvAEILCAnZA,841,[],"southern,newamerican",HsG-RHppRSEi4sw02tjFaQ
The Hay Merchant,29.74494,-95.39303,False,77006,Houston,TX,$$,4.0,https://www.yelp.com/biz/the-hay-merchant-houston?adjust_creative=OvRCQGmWRwMIvAEILCAnZA&utm_campaign=yelp_api_v3&utm_medium=api_v3_business_search&utm_source=OvRCQGmWRwMIvAEILCAnZA,929,[],"tradamerican,gastropubs,beerbar",Bwt9AG0Uh3zdQdP-doVIFQ
The Black Labrador,29.7355,-95.39154,False,77006,Houston,TX,$$,3.0,https://www.yelp.com/biz/the-black-labrador-houston?adjust_creative=OvRCQGmWRwMIvAEILCAnZA&utm_campaign=yelp_api_v3&utm_medium=api_v3_business_search&utm_source=OvRCQGmWRwMIvAEILCAnZA,306,[],"british,pubs",Nn-XA87OsEqmk4vCqEbDdg
Pluckers Wing Bar,29.7735952,-95.4093677,False,77007,Houston,TX,$$,3.5,https://www.yelp.com/biz/pluckers-wing-bar-houston?adjust_creative=OvRCQGmWRwMIvAEILCAnZA&utm_campaign=yelp_api_v3&utm_medium=api_v3_business_search&utm_source=OvRCQGmWRwMIvAEILCAnZA,743,[],"chicken_wings,sportsbars",30fzRmlJ3diNIpctApYB_g
Laurenzo's Restaurant,29.77069,-95.40562,False,77007,Houston,TX,$$,3.5,https://www.yelp.com/biz/laurenzos-restaurant-houston?adjust_creative=OvRCQGmWRwMIvAEILCAnZA&utm_campaign=yelp_api_v3&utm_medium=api_v3_business_search&utm_source=OvRCQGmWRwMIvAEILCAnZA,387,[],"newamerican,steak,seafood",pBkiFRHTm9e9z5TOjheyWw
Niko Niko's Greek & American Cafe,29.74651,-95.39218,False,77006,Houston,TX,$$,4.0,https://www.yelp.com/biz/niko-nikos-greek-and-american-cafe-houston?adjust_creative=OvRCQGmWRwMIvAEILCAnZA&utm_campaign=yelp_api_v3&utm_medium=api_v3_business_search&utm_source=OvRCQGmWRwMIvAEILCAnZA,1780,[],"greek,mediterranean",9MKqG6XgUEdErB5zfH5faA
Lupe Tortilla,29.77462,-95.40987,False,77007,Houston,TX,$$,3.5,https://www.yelp.com/biz/lupe-tortilla-houston-8?adjust_creative=OvRCQGmWRwMIvAEILCAnZA&utm_campaign=yelp_api_v3&utm_medium=api_v3_business_search&utm_source=OvRCQGmWRwMIvAEILCAnZA,245,[],"mexican,tex-mex,seafood",dpD0_OVmOj3byuQEAMUOnw
BB's Tex-Orleans,29.745212,-95.391735,False,77006,Houston,TX,$$,3.5,https://www.yelp.com/biz/bbs-tex-orleans-houston?adjust_creative=OvRCQGmWRwMIvAEILCAnZA&utm_campaign=yelp_api_v3&utm_medium=api_v3_business_search&utm_source=OvRCQGmWRwMIvAEILCAnZA,584,[],cajun,meVbDSKke_lmRMKFL7fYKw
Cadillac Bar,29.776495,-95.409039,False,77007,Houston,TX,$$,3.5,https://www.yelp.com/biz/cadillac-bar-houston?adjust_creative=OvRCQGmWRwMIvAEILCAnZA&utm_campaign=yelp_api_v3&utm_medium=api_v3_business_search&utm_source=OvRCQGmWRwMIvAEILCAnZA,290,"['pickup', 'delivery']","tex-mex,seafood,buffets",hy866sjjRAniN1p7lCreCQ
Buffalo Wild Wings,29.7695462471432,-95.4002133338865,False,77007,Houston,TX,$$,3.0,https://www.yelp.com/biz/buffalo-wild-wings-houston-10?adjust_creative=OvRCQGmWRwMIvAEILCAnZA&utm_campaign=yelp_api_v3&utm_medium=api_v3_business_search&utm_source=OvRCQGmWRwMIvAEILCAnZA,158,['delivery'],"chicken_wings,tradamerican,sportsbars",CCUEBkzBjdtlSyN9JS97BA
Sorrento Ristorante Italiano,29.7444128,-95.3867141,False,77006,Houston,TX,$$$,4.0,https://www.yelp.com/biz/sorrento-ristorante-italiano-houston?adjust_creative=OvRCQGmWRwMIvAEILCAnZA&utm_campaign=yelp_api_v3&utm_medium=api_v3_business_search&utm_source=OvRCQGmWRwMIvAEILCAnZA,273,[],italian,6eiWLIo58e4q1pOt_p6FXQ
Cafe Luxor,29.769905090332,-95.3983306884766,False,77007,Houston,TX,$$,2.5,https://www.yelp.com/biz/cafe-luxor-houston?adjust_creative=OvRCQGmWRwMIvAEILCAnZA&utm_campaign=yelp_api_v3&utm_medium=api_v3_business_search&utm_source=OvRCQGmWRwMIvAEILCAnZA,199,[],"tradamerican,hookah_bars,sportsbars",P-QAU5J_Wu_WfSpMDZylJg
Nundini Chef's Table,29.78044,-95.40868,False,77007,Houston,TX,$$,3.5,https://www.yelp.com/biz/nundini-chefs-table-houston-3?adjust_creative=OvRCQGmWRwMIvAEILCAnZA&utm_campaign=yelp_api_v3&utm_medium=api_v3_business_search&utm_source=OvRCQGmWRwMIvAEILCAnZA,222,['pickup'],"italian,gelato,wine_bars",gv9fcHYzWIEg0Ml31usZ9g
Lucille's,29.72388,-95.38515,False,77004,Houston,TX,$$,3.5,https://www.yelp.com/biz/lucilles-houston?adjust_creative=OvRCQGmWRwMIvAEILCAnZA&utm_campaign=yelp_api_v3&utm_medium=api_v3_business_search&utm_source=OvRCQGmWRwMIvAEILCAnZA,621,[],"newamerican,southern",pr9Hcn5fjpxWLZzIbNb8Cw
L'Olivier Restaurant,29.744834,-95.384574,False,77006,Houston,TX,$$$,3.5,https://www.yelp.com/biz/l-olivier-restaurant-houston?adjust_creative=OvRCQGmWRwMIvAEILCAnZA&utm_campaign=yelp_api_v3&utm_medium=api_v3_business_search&utm_source=OvRCQGmWRwMIvAEILCAnZA,143,[],"newamerican,french,brasseries",2BKr3Iu24F64GvTOg288PQ
Urban Eats,29.7695392518322,-95.3949268650834,False,77007,Houston,TX,$$,4.0,https://www.yelp.com/biz/urban-eats-houston-2?adjust_creative=OvRCQGmWRwMIvAEILCAnZA&utm_campaign=yelp_api_v3&utm_medium=api_v3_business_search&utm_source=OvRCQGmWRwMIvAEILCAnZA,789,[],"newamerican,bakeries,coffee",mtGZS8a0TKeLkQbAylbNPg
Star Fish,29.773899,-95.39795,False,77007,Houston,TX,$$$,4.0,https://www.yelp.com/biz/star-fish-houston?adjust_creative=OvRCQGmWRwMIvAEILCAnZA&utm_campaign=yelp_api_v3&utm_medium=api_v3_business_search&utm_source=OvRCQGmWRwMIvAEILCAnZA,190,[],"seafood,wine_bars",UvWyoMRUMWhjw4Blj_9a4w
Provisions,29.7588183,-95.3856405,False,77019,Houston,TX,$$,4.0,https://www.yelp.com/biz/provisions-houston?adjust_creative=OvRCQGmWRwMIvAEILCAnZA&utm_campaign=yelp_api_v3&utm_medium=api_v3_business_search&utm_source=OvRCQGmWRwMIvAEILCAnZA,516,[],"newamerican,bars",9FA1esS8PrZapjaZxlU3gQ
Piola,29.74287233551,-95.3798845184326,False,77006,Houston,TX,$$,4.0,https://www.yelp.com/biz/piola-houston-6?adjust_creative=OvRCQGmWRwMIvAEILCAnZA&utm_campaign=yelp_api_v3&utm_medium=api_v3_business_search&utm_source=OvRCQGmWRwMIvAEILCAnZA,535,[],"pizza,italian,salad",OYiE24uzI_YKGuchV8xo0Q
Damian's Cucina Italiana,29.74437,-95.3797,False,77006,Houston,TX,$$$,4.0,https://www.yelp.com/biz/damians-cucina-italiana-houston-2?adjust_creative=OvRCQGmWRwMIvAEILCAnZA&utm_campaign=yelp_api_v3&utm_medium=api_v3_business_search&utm_source=OvRCQGmWRwMIvAEILCAnZA,182,"['delivery', 'pickup']","restaurants,cocktailbars",1oPxBD7nBPa8I6ZCeX1Svg
Oporto Fooding House & Wine,29.7531384239378,-95.3802139853275,False,77019,Houston,TX,$$,4.5,https://www.yelp.com/biz/oporto-fooding-house-and-wine-houston?adjust_creative=OvRCQGmWRwMIvAEILCAnZA&utm_campaign=yelp_api_v3&utm_medium=api_v3_business_search&utm_source=OvRCQGmWRwMIvAEILCAnZA,722,"['restaurant_reservation', 'pickup']","tapasmallplates,portuguese,wine_bars",I1VlZBW80UL3E3NvahlqXg
Luna Y Sol Mexican Grill,29.74512,-95.37747,False,77006,Houston,TX,$,4.0,https://www.yelp.com/biz/luna-y-sol-mexican-grill-houston?adjust_creative=OvRCQGmWRwMIvAEILCAnZA&utm_campaign=yelp_api_v3&utm_medium=api_v3_business_search&utm_source=OvRCQGmWRwMIvAEILCAnZA,491,"['delivery', 'pickup']","mexican,breakfast_brunch,cocktailbars",EodTSFN1IuhLuOli4ihw9g
Ibiza Food & Wine Bar,29.747401,-95.3768201,False,77006,Houston,TX,$$$,4.0,https://www.yelp.com/biz/ibiza-food-and-wine-bar-houston-2?adjust_creative=OvRCQGmWRwMIvAEILCAnZA&utm_campaign=yelp_api_v3&utm_medium=api_v3_business_search&utm_source=OvRCQGmWRwMIvAEILCAnZA,427,[],"wine_bars,newamerican,basque",kiqro_zYm0oL_kwrUF3Edg
M&M Grill,29.70125,-95.38558,False,77021,Houston,TX,$,4.5,https://www.yelp.com/biz/m-and-m-grill-houston?adjust_creative=OvRCQGmWRwMIvAEILCAnZA&utm_campaign=yelp_api_v3&utm_medium=api_v3_business_search&utm_source=OvRCQGmWRwMIvAEILCAnZA,613,[],"mediterranean,mexican,burgers",po_D9oH5ahsD0tDWpFmREQ
Hughie's,29.80131,-95.4317,False,77008,Houston,TX,$$,4.0,https://www.yelp.com/biz/hughies-houston-6?adjust_creative=OvRCQGmWRwMIvAEILCAnZA&utm_campaign=yelp_api_v3&utm_medium=api_v3_business_search&utm_source=OvRCQGmWRwMIvAEILCAnZA,621,[],"vietnamese,gastropubs,newamerican",N5xMxAvwJjLNTY9O3I5y5Q
Reef,29.74584,-95.37545,False,77006,Houston,TX,$$$,4.0,https://www.yelp.com/biz/reef-houston?adjust_creative=OvRCQGmWRwMIvAEILCAnZA&utm_campaign=yelp_api_v3&utm_medium=api_v3_business_search&utm_source=OvRCQGmWRwMIvAEILCAnZA,700,[],"seafood,lounges",-Btep8u-_EGtlYuucK6zkA
Cyclone Anaya's Mexican Kitchen,29.7524247,-95.3772482,False,77002,Houston,TX,$$,3.0,https://www.yelp.com/biz/cyclone-anayas-mexican-kitchen-houston-4?adjust_creative=OvRCQGmWRwMIvAEILCAnZA&utm_campaign=yelp_api_v3&utm_medium=api_v3_business_search&utm_source=OvRCQGmWRwMIvAEILCAnZA,551,[],"tex-mex,mexican,bars",M1a5xbE1PjjjxBdGcbKxUg
Buffalo Wild Wings,29.7510794,-95.3755831,False,77002,Houston,TX,$$,2.0,https://www.yelp.com/biz/buffalo-wild-wings-houston-11?adjust_creative=OvRCQGmWRwMIvAEILCAnZA&utm_campaign=yelp_api_v3&utm_medium=api_v3_business_search&utm_source=OvRCQGmWRwMIvAEILCAnZA,239,['delivery'],"sportsbars,tradamerican,chicken_wings",eLJIxvINFt5eLWX2X_HV8Q
Weights + Measures,29.742636,-95.372765,False,77004,Houston,TX,$$,3.5,https://www.yelp.com/biz/weights-measures-houston-2?adjust_creative=OvRCQGmWRwMIvAEILCAnZA&utm_campaign=yelp_api_v3&utm_medium=api_v3_business_search&utm_source=OvRCQGmWRwMIvAEILCAnZA,643,[],"bakeries,gastropubs,newamerican",UQN5dh00ezd3L3runX7MlA
Poitín,29.7701177386825,-95.3822795350571,False,77007,Houston,TX,$$$,3.5,https://www.yelp.com/biz/poit%C3%ADn-houston-3?adjust_creative=OvRCQGmWRwMIvAEILCAnZA&utm_campaign=yelp_api_v3&utm_medium=api_v3_business_search&utm_source=OvRCQGmWRwMIvAEILCAnZA,119,[],"cocktailbars,newamerican",ZwUZhbCgjV2tES00V0w69A
South Bank Seafood Bar,29.75797,-95.37562,False,77019,Houston,TX,$$,4.0,https://www.yelp.com/biz/south-bank-seafood-bar-houston?adjust_creative=OvRCQGmWRwMIvAEILCAnZA&utm_campaign=yelp_api_v3&utm_medium=api_v3_business_search&utm_source=OvRCQGmWRwMIvAEILCAnZA,236,"['delivery', 'pickup']","seafood,cajun,asianfusion",BzMY8FGwrsLzoAMaUNCu6A
Onion Creek Cafe,29.7818298339844,-95.3910217285156,False,77007,Houston,TX,$$,3.5,https://www.yelp.com/biz/onion-creek-cafe-houston?adjust_creative=OvRCQGmWRwMIvAEILCAnZA&utm_campaign=yelp_api_v3&utm_medium=api_v3_business_search&utm_source=OvRCQGmWRwMIvAEILCAnZA,739,"['delivery', 'pickup']","coffee,bars,breakfast_brunch",32hMRsZlsjcidvQSZTrLmQ
Rainbow Lodge,29.8045101165771,-95.4296264648438,False,77008,Houston,TX,$$$,4.0,https://www.yelp.com/biz/rainbow-lodge-houston?adjust_creative=OvRCQGmWRwMIvAEILCAnZA&utm_campaign=yelp_api_v3&utm_medium=api_v3_business_search&utm_source=OvRCQGmWRwMIvAEILCAnZA,419,"['delivery', 'pickup']","newamerican,seafood,wine_bars",yif1pqRj5r_dhlMroc8RnA
Cavatore Italian Restaurant,29.8052,-95.42883,False,77008,Houston,TX,$$,3.5,https://www.yelp.com/biz/cavatore-italian-restaurant-houston?adjust_creative=OvRCQGmWRwMIvAEILCAnZA&utm_campaign=yelp_api_v3&utm_medium=api_v3_business_search&utm_source=OvRCQGmWRwMIvAEILCAnZA,310,['pickup'],italian,vVxrh4Jf6Cq_-PKg8YObFg
BB's Tex-Orleans,29.78133,-95.38794,False,77007,Houston,TX,$$,4.0,https://www.yelp.com/biz/bbs-tex-orleans-houston-4?adjust_creative=OvRCQGmWRwMIvAEILCAnZA&utm_campaign=yelp_api_v3&utm_medium=api_v3_business_search&utm_source=OvRCQGmWRwMIvAEILCAnZA,654,[],cajun,mCPQzOgjy_pjb7r1rRnE3w
The Barking Pig,29.806879,-95.429473,False,77008,Houston,TX,$$,3.5,https://www.yelp.com/biz/the-barking-pig-houston?adjust_creative=OvRCQGmWRwMIvAEILCAnZA&utm_campaign=yelp_api_v3&utm_medium=api_v3_business_search&utm_source=OvRCQGmWRwMIvAEILCAnZA,197,[],"wine_bars,cocktailbars,breakfast_brunch",wkcSfUXqL8Bu4AASxPDd4A
B&B Butchers & Restaurant,29.76807,-95.37628,False,77007,Houston,TX,$$$,3.5,https://www.yelp.com/biz/b-and-b-butchers-and-restaurant-houston-4?adjust_creative=OvRCQGmWRwMIvAEILCAnZA&utm_campaign=yelp_api_v3&utm_medium=api_v3_business_search&utm_source=OvRCQGmWRwMIvAEILCAnZA,766,[],"butcher,steak,cocktailbars",z4UopTuEkrO4LT1sVq6LJw
Trofi Resturant,29.75796,-95.37119,False,77002,Houston,TX,$$,2.0,https://www.yelp.com/biz/trofi-resturant-houston-2?adjust_creative=OvRCQGmWRwMIvAEILCAnZA&utm_campaign=yelp_api_v3&utm_medium=api_v3_business_search&utm_source=OvRCQGmWRwMIvAEILCAnZA,11,[],"newamerican,southern,breakfast_brunch",O6GGqGKnVP8PVkMdXeReqA
Crisp,29.8062839508057,-95.4220886230469,False,77008,Houston,TX,$$,4.0,https://www.yelp.com/biz/crisp-houston-2?adjust_creative=OvRCQGmWRwMIvAEILCAnZA&utm_campaign=yelp_api_v3&utm_medium=api_v3_business_search&utm_source=OvRCQGmWRwMIvAEILCAnZA,767,[],"italian,newamerican",fZsyLhNQ0GvtKFzCKxS7Yg
Cane Rosso,29.8025909301009,-95.4104705527425,False,77008,Houston,TX,$$,3.5,https://www.yelp.com/biz/cane-rosso-houston?adjust_creative=OvRCQGmWRwMIvAEILCAnZA&utm_campaign=yelp_api_v3&utm_medium=api_v3_business_search&utm_source=OvRCQGmWRwMIvAEILCAnZA,314,[],"pizza,italian",U8Cb7enlBYXhel_pZchr4w
Maison Pucha Bistro,29.78922,-95.3881,False,77008,Houston,TX,$$,4.0,https://www.yelp.com/biz/maison-pucha-bistro-houston?adjust_creative=OvRCQGmWRwMIvAEILCAnZA&utm_campaign=yelp_api_v3&utm_medium=api_v3_business_search&utm_source=OvRCQGmWRwMIvAEILCAnZA,146,[],"french,newamerican,modern_european",bvJx8Ez9iBl1Jo3yMRJuMA
Collina's Italian Cafe,29.8026951,-95.4061526,False,77008,Houston,TX,$$,3.0,https://www.yelp.com/biz/collinas-italian-cafe-houston-5?adjust_creative=OvRCQGmWRwMIvAEILCAnZA&utm_campaign=yelp_api_v3&utm_medium=api_v3_business_search&utm_source=OvRCQGmWRwMIvAEILCAnZA,193,['delivery'],italian,oP0JKsizDX2hSojsU_4Csw
III Forks Prime Steakhouse,29.7541953989078,-95.3647297788593,False,77002,Houston,TX,$$$,3.5,https://www.yelp.com/biz/iii-forks-prime-steakhouse-houston-4?adjust_creative=OvRCQGmWRwMIvAEILCAnZA&utm_campaign=yelp_api_v3&utm_medium=api_v3_business_search&utm_source=OvRCQGmWRwMIvAEILCAnZA,325,"['delivery', 'pickup']",steak,Ap0Td6JKyKH013jqe2CLzg
Liberty Kitchen & Oyster Bar,29.79058,-95.38753,False,77008,Houston,TX,$$,3.5,https://www.yelp.com/biz/liberty-kitchen-and-oyster-bar-houston-2?adjust_creative=OvRCQGmWRwMIvAEILCAnZA&utm_campaign=yelp_api_v3&utm_medium=api_v3_business_search&utm_source=OvRCQGmWRwMIvAEILCAnZA,983,[],"newamerican,seafood,bars",TtxMdT82vPw3V0DgwzaDpg
Little Napoli Italian Cuisine,29.7626455126023,-95.3670287306756,False,77002,Houston,TX,$$,2.5,https://www.yelp.com/biz/little-napoli-italian-cuisine-houston-11?adjust_creative=OvRCQGmWRwMIvAEILCAnZA&utm_campaign=yelp_api_v3&utm_medium=api_v3_business_search&utm_source=OvRCQGmWRwMIvAEILCAnZA,239,"['delivery', 'pickup']","italian,wine_bars",mnK-RBHn6qzKHhhygkVH9w
Quattro Restaurant,29.75401,-95.36277,False,77010,Houston,TX,$$$,4.0,https://www.yelp.com/biz/quattro-restaurant-houston?adjust_creative=OvRCQGmWRwMIvAEILCAnZA&utm_campaign=yelp_api_v3&utm_medium=api_v3_business_search&utm_source=OvRCQGmWRwMIvAEILCAnZA,168,[],"italian,breakfast_brunch",WsuI8Fn0RDJkf4HWGc8OTQ
Pappas Bros Steakhouse,29.7555094708505,-95.3628793166023,False,77010,Houston,TX,$$$$,4.5,https://www.yelp.com/biz/pappas-bros-steakhouse-houston-4?adjust_creative=OvRCQGmWRwMIvAEILCAnZA&utm_campaign=yelp_api_v3&utm_medium=api_v3_business_search&utm_source=OvRCQGmWRwMIvAEILCAnZA,195,[],steak,fyXynRba9znW2LrsaZxgVg
Down House,29.80216,-95.3995,False,77008,Houston,TX,$$,3.5,https://www.yelp.com/biz/down-house-houston?adjust_creative=OvRCQGmWRwMIvAEILCAnZA&utm_campaign=yelp_api_v3&utm_medium=api_v3_business_search&utm_source=OvRCQGmWRwMIvAEILCAnZA,1021,[],"breakfast_brunch,coffee,cocktailbars",5nttRsGGVgfYHxGFCwEEuQ
Table 7 Bistro,29.75832,-95.36288,False,77002,Houston,TX,$$,3.0,https://www.yelp.com/biz/table-7-bistro-houston-4?adjust_creative=OvRCQGmWRwMIvAEILCAnZA&utm_campaign=yelp_api_v3&utm_medium=api_v3_business_search&utm_source=OvRCQGmWRwMIvAEILCAnZA,86,[],newamerican,BksGHqC1MhkHENSXsB98-w
MKT BAR,29.7544629017867,-95.3614359686478,False,77010,Houston,TX,$$,4.0,https://www.yelp.com/biz/mkt-bar-houston?adjust_creative=OvRCQGmWRwMIvAEILCAnZA&utm_campaign=yelp_api_v3&utm_medium=api_v3_business_search&utm_source=OvRCQGmWRwMIvAEILCAnZA,506,[],"newamerican,musicvenues,breakfast_brunch",s9ZJA4knAs1o7Wo4UeIh_Q
Pappadeaux Seafood Kitchen,29.750839,-95.359628,False,77010,Houston,TX,$$,4.0,https://www.yelp.com/biz/pappadeaux-seafood-kitchen-houston-25?adjust_creative=OvRCQGmWRwMIvAEILCAnZA&utm_campaign=yelp_api_v3&utm_medium=api_v3_business_search&utm_source=OvRCQGmWRwMIvAEILCAnZA,119,[],"seafood,cajun",giFlDglx4sw_HhBQcapvIg
El Big Bad,29.76127624718,-95.3626658767462,False,77002,Houston,TX,$$,3.0,https://www.yelp.com/biz/el-big-bad-houston-3?adjust_creative=OvRCQGmWRwMIvAEILCAnZA&utm_campaign=yelp_api_v3&utm_medium=api_v3_business_search&utm_source=OvRCQGmWRwMIvAEILCAnZA,568,"['delivery', 'pickup']","mexican,cocktailbars,gastropubs",zA6Q9MVc2Tk4HTrurx2avQ
The Moonshiners Southern Table + Bar,29.76056,-95.36188,False,77002,Houston,TX,$$,4.0,https://www.yelp.com/biz/the-moonshiners-southern-table-bar-houston-2?adjust_creative=OvRCQGmWRwMIvAEILCAnZA&utm_campaign=yelp_api_v3&utm_medium=api_v3_business_search&utm_source=OvRCQGmWRwMIvAEILCAnZA,417,[],"southern,cocktailbars,breakfast_brunch",Az9zW6yZIp6Gr_yIeDr8HQ
Treebeards,29.7621854179471,-95.3618420932421,False,77002,Houston,TX,$,4.0,https://www.yelp.com/biz/treebeards-houston?adjust_creative=OvRCQGmWRwMIvAEILCAnZA&utm_campaign=yelp_api_v3&utm_medium=api_v3_business_search&utm_source=OvRCQGmWRwMIvAEILCAnZA,181,[],"cajun,southern,cafeteria",hHvaKf479t_jxWzO2-AYsA
Batanga,29.7623427,-95.3614479,False,77002,Houston,TX,$$,3.0,https://www.yelp.com/biz/batanga-houston?adjust_creative=OvRCQGmWRwMIvAEILCAnZA&utm_campaign=yelp_api_v3&utm_medium=api_v3_business_search&utm_source=OvRCQGmWRwMIvAEILCAnZA,849,[],"tapasmallplates,cocktailbars,latin",Rv5l4RJxlUP0cFZtRwB2Zg
Xochi,29.754551,-95.3582,False,77010,Houston,TX,$$$,4.0,https://www.yelp.com/biz/xochi-houston?adjust_creative=OvRCQGmWRwMIvAEILCAnZA&utm_campaign=yelp_api_v3&utm_medium=api_v3_business_search&utm_source=OvRCQGmWRwMIvAEILCAnZA,443,[],"mexican,breakfast_brunch,bars",qwwRCIbAaaxIbCwWovXV6A
Vic & Anthony's Steakhouse,29.7570194980525,-95.3581523895264,False,77002,Houston,TX,$$$$,4.0,https://www.yelp.com/biz/vic-and-anthonys-steakhouse-houston?adjust_creative=OvRCQGmWRwMIvAEILCAnZA&utm_campaign=yelp_api_v3&utm_medium=api_v3_business_search&utm_source=OvRCQGmWRwMIvAEILCAnZA,785,[],"steak,newamerican",2Hsx_X-zX2xuz0-9MaG-3w
Osso & Kristalla,29.7572379,-95.3574475,False,77002,Houston,TX,$$,4.0,https://www.yelp.com/biz/osso-and-kristalla-houston-2?adjust_creative=OvRCQGmWRwMIvAEILCAnZA&utm_campaign=yelp_api_v3&utm_medium=api_v3_business_search&utm_source=OvRCQGmWRwMIvAEILCAnZA,154,[],"italian,pizza",XPdL-df73m-sYrTndOrb3Q
Jimmy G's,29.94106,-95.4007,False,77060,Houston,TX,$$,3.5,https://www.yelp.com/biz/jimmy-gs-houston-2?adjust_creative=OvRCQGmWRwMIvAEILCAnZA&utm_campaign=yelp_api_v3&utm_medium=api_v3_business_search&utm_source=OvRCQGmWRwMIvAEILCAnZA,213,[],"cajun,seafood",g8n5kLWilWhIVXJP8LZ1lQ
BreWingZ Restaurant and Bar,29.8478022,-95.3942794,False,77076,Houston,TX,$$,1.5,https://www.yelp.com/biz/brewingz-restaurant-and-bar-houston-6?adjust_creative=OvRCQGmWRwMIvAEILCAnZA&utm_campaign=yelp_api_v3&utm_medium=api_v3_business_search&utm_source=OvRCQGmWRwMIvAEILCAnZA,35,"['pickup', 'delivery']","chicken_wings,sportsbars,tradamerican",f5o1NtLkQbe4-VT9DqzAsg
Pappadeaux Seafood Kitchen,29.9848430665455,-95.3350349304517,False,77032,Houston,TX,$$,4.0,https://www.yelp.com/biz/pappadeaux-seafood-kitchen-houston-14?adjust_creative=OvRCQGmWRwMIvAEILCAnZA&utm_campaign=yelp_api_v3&utm_medium=api_v3_business_search&utm_source=OvRCQGmWRwMIvAEILCAnZA,478,[],"seafood,cajun",GQOhYffF4-3piZxrDrnTTA
Cat Cora's Kitchen,29.9856372554936,-95.33472136765,False,77032,Houston,TX,$$,3.5,https://www.yelp.com/biz/cat-coras-kitchen-houston?adjust_creative=OvRCQGmWRwMIvAEILCAnZA&utm_campaign=yelp_api_v3&utm_medium=api_v3_business_search&utm_source=OvRCQGmWRwMIvAEILCAnZA,332,[],newamerican,YJgYaoBDDBomaG2KBddGPQ
The Toasted Yolk Cafe,29.989215,-95.425852,False,77090,Houston,TX,$$,4.5,https://www.yelp.com/biz/the-toasted-yolk-cafe-houston?adjust_creative=OvRCQGmWRwMIvAEILCAnZA&utm_campaign=yelp_api_v3&utm_medium=api_v3_business_search&utm_source=OvRCQGmWRwMIvAEILCAnZA,593,['pickup'],"breakfast_brunch,newamerican,salad",APECdd5_koT_SCeFZtmBgw
Timmy Chan Restaurant,29.85423,-95.30086,False,77016,Houston,TX,$,3.5,https://www.yelp.com/biz/timmy-chan-restaurant-houston-6?adjust_creative=OvRCQGmWRwMIvAEILCAnZA&utm_campaign=yelp_api_v3&utm_medium=api_v3_business_search&utm_source=OvRCQGmWRwMIvAEILCAnZA,3,"['pickup', 'delivery']","chinese,seafood,chicken_wings",23f1WhgIDNih9vn7SrCTeQ
Jus' Mac,29.81066,-95.39966,False,77008,Houston,TX,$$,3.5,https://www.yelp.com/biz/jus-mac-houston-3?adjust_creative=OvRCQGmWRwMIvAEILCAnZA&utm_campaign=yelp_api_v3&utm_medium=api_v3_business_search&utm_source=OvRCQGmWRwMIvAEILCAnZA,678,[],newamerican,Rn9uaxtp2hnHq83E73mxXw
Golden Seafood House,29.80863,-95.38248,False,77009,Houston,TX,$$,3.5,https://www.yelp.com/biz/golden-seafood-house-houston?adjust_creative=OvRCQGmWRwMIvAEILCAnZA&utm_campaign=yelp_api_v3&utm_medium=api_v3_business_search&utm_source=OvRCQGmWRwMIvAEILCAnZA,131,[],seafood,OzZQtKyWfUfP0A-Z0QY0lg
Potatoe Patch,30.0249551399427,-95.3951769324741,False,77073,Houston,TX,$$,3.0,https://www.yelp.com/biz/potatoe-patch-houston?adjust_creative=OvRCQGmWRwMIvAEILCAnZA&utm_campaign=yelp_api_v3&utm_medium=api_v3_business_search&utm_source=OvRCQGmWRwMIvAEILCAnZA,288,[],"seafood,tradamerican,steak",hffBcbZ65lCjRAo-mwqZxw
Chili's,30.0190918574769,-95.4378565249955,False,77090,Houston,TX,$$,2.5,https://www.yelp.com/biz/chilis-houston-40?adjust_creative=OvRCQGmWRwMIvAEILCAnZA&utm_campaign=yelp_api_v3&utm_medium=api_v3_business_search&utm_source=OvRCQGmWRwMIvAEILCAnZA,72,['delivery'],"tradamerican,bars,tex-mex",4HV_hC25H51ys1pHnSf53A
Le' Pam's House of Creole,30.0122284519036,-95.4550204123726,False,77090,Houston,TX,$$,5.0,https://www.yelp.com/biz/le-pams-house-of-creole-houston?adjust_creative=OvRCQGmWRwMIvAEILCAnZA&utm_campaign=yelp_api_v3&utm_medium=api_v3_business_search&utm_source=OvRCQGmWRwMIvAEILCAnZA,485,[],"cajun,southern,soulfood",vdCbkulRSp61-X12JL4tlA
Los Cucos Mexican Cafe - Fall Creek,29.9337620686407,-95.2479828891417,False,77396,Humble,TX,$$,3.5,https://www.yelp.com/biz/los-cucos-mexican-cafe-fall-creek-humble-3?adjust_creative=OvRCQGmWRwMIvAEILCAnZA&utm_campaign=yelp_api_v3&utm_medium=api_v3_business_search&utm_source=OvRCQGmWRwMIvAEILCAnZA,147,"['pickup', 'delivery']","mexican,bars,tex-mex",ItldJz9i-lDH4WmzN2-msQ
El Refu,29.93534,-95.24531,False,77396,Humble,TX,$$,3.0,https://www.yelp.com/biz/el-refu-humble?adjust_creative=OvRCQGmWRwMIvAEILCAnZA&utm_campaign=yelp_api_v3&utm_medium=api_v3_business_search&utm_source=OvRCQGmWRwMIvAEILCAnZA,37,[],"mexican,tex-mex,bars",xRsV5X9QTvPKRp8jqdOPxw
Tony's Seafood & More,29.85035,-95.2641,False,77028,Houston,TX,$$,4.5,https://www.yelp.com/biz/tonys-seafood-and-more-houston?adjust_creative=OvRCQGmWRwMIvAEILCAnZA&utm_campaign=yelp_api_v3&utm_medium=api_v3_business_search&utm_source=OvRCQGmWRwMIvAEILCAnZA,3,[],seafood,t24B8RstGYevpTkhR_ex1A
HB Japanese Steak House,30.004319,-95.276992,False,77338,Humble,TX,$$,3.0,https://www.yelp.com/biz/hb-japanese-steak-house-humble?adjust_creative=OvRCQGmWRwMIvAEILCAnZA&utm_campaign=yelp_api_v3&utm_medium=api_v3_business_search&utm_source=OvRCQGmWRwMIvAEILCAnZA,48,[],"japanese,steak,sushi",hNy7Mo8McOF-QBRKC1nzoA
Italiano's Restaurant,30.0051049663367,-95.2582249717317,False,77338,Humble,TX,$$,4.0,https://www.yelp.com/biz/italianos-restaurant-humble?adjust_creative=OvRCQGmWRwMIvAEILCAnZA&utm_campaign=yelp_api_v3&utm_medium=api_v3_business_search&utm_source=OvRCQGmWRwMIvAEILCAnZA,428,[],"pizza,italian",5ngjrYkQOUuw07O6qkk1Lw
Pappas Seafood House,30.01077,-95.2639,False,77339,Humble,TX,$$,4.0,https://www.yelp.com/biz/pappas-seafood-house-humble?adjust_creative=OvRCQGmWRwMIvAEILCAnZA&utm_campaign=yelp_api_v3&utm_medium=api_v3_business_search&utm_source=OvRCQGmWRwMIvAEILCAnZA,210,[],seafood,YWOBxjZQxrkHWw3PBtzWFw
Chuy's,30.0146482901418,-95.2625454428963,False,77338,Humble,TX,$$,3.5,https://www.yelp.com/biz/chuys-humble-2?adjust_creative=OvRCQGmWRwMIvAEILCAnZA&utm_campaign=yelp_api_v3&utm_medium=api_v3_business_search&utm_source=OvRCQGmWRwMIvAEILCAnZA,196,[],"tex-mex,mexican,bars",vncZwOaorumCZYwXccGqOg
Cheddar's Scratch Kitchen,30.0675472395,-95.435735927169,False,77388,Spring,TX,$$,2.5,https://www.yelp.com/biz/cheddars-scratch-kitchen-spring?adjust_creative=OvRCQGmWRwMIvAEILCAnZA&utm_campaign=yelp_api_v3&utm_medium=api_v3_business_search&utm_source=OvRCQGmWRwMIvAEILCAnZA,227,[],"tradamerican,comfortfood,bars",C5lIHzyytQSBjZVVWWyS5g
Moon Tower Inn,29.754284,-95.341073,False,77003,Houston,TX,$$,4.0,https://www.yelp.com/biz/moon-tower-inn-houston?adjust_creative=OvRCQGmWRwMIvAEILCAnZA&utm_campaign=yelp_api_v3&utm_medium=api_v3_business_search&utm_source=OvRCQGmWRwMIvAEILCAnZA,717,[],"divebars,hotdog,beergardens",WaeYGFs9XVZfX7gXY8e2cQ
The Provisioner's Tale,30.0796779726219,-95.4215487465262,False,77373,Spring,TX,$$,4.0,https://www.yelp.com/biz/the-provisioners-tale-spring?adjust_creative=OvRCQGmWRwMIvAEILCAnZA&utm_campaign=yelp_api_v3&utm_medium=api_v3_business_search&utm_source=OvRCQGmWRwMIvAEILCAnZA,16,[],"tradamerican,wine_bars,breakfast_brunch",KISielelNaDLG1lXo-qltA
Kababi Zaytoon,30.00699,-95.54789,False,77379,Spring,TX,$$,3.5,https://www.yelp.com/biz/kababi-zaytoon-spring?adjust_creative=OvRCQGmWRwMIvAEILCAnZA&utm_campaign=yelp_api_v3&utm_medium=api_v3_business_search&utm_source=OvRCQGmWRwMIvAEILCAnZA,193,[],mediterranean,UEiFDeG9hsxuM-YmpF6nSA
Nancy's Hustle,29.74551,-95.3520999,False,77003,Houston,TX,$$,4.5,https://www.yelp.com/biz/nancys-hustle-houston?adjust_creative=OvRCQGmWRwMIvAEILCAnZA&utm_campaign=yelp_api_v3&utm_medium=api_v3_business_search&utm_source=OvRCQGmWRwMIvAEILCAnZA,250,[],"newamerican,tapasmallplates,modern_european",TqbzDpUI9_SREzH_AfejlQ
Krav'n Cajun,30.070991,-95.474181,False,77388,Spring,TX,$,4.5,https://www.yelp.com/biz/kravn-cajun-spring-3?adjust_creative=OvRCQGmWRwMIvAEILCAnZA&utm_campaign=yelp_api_v3&utm_medium=api_v3_business_search&utm_source=OvRCQGmWRwMIvAEILCAnZA,75,[],cajun,gR8nHSrKmB4LbTksg5TADA
Zachary's Cajun Cafe,30.05126953125,-95.2455215454102,False,77339,Kingwood,TX,$$,3.5,https://www.yelp.com/biz/zacharys-cajun-cafe-kingwood?adjust_creative=OvRCQGmWRwMIvAEILCAnZA&utm_campaign=yelp_api_v3&utm_medium=api_v3_business_search&utm_source=OvRCQGmWRwMIvAEILCAnZA,198,[],"cajun,seafood",oiBDB9o0nYUf-wDokrJALQ
The Union Kitchen,30.06237,-95.246819,False,77339,Kingwood,TX,$$,4.0,https://www.yelp.com/biz/the-union-kitchen-kingwood?adjust_creative=OvRCQGmWRwMIvAEILCAnZA&utm_campaign=yelp_api_v3&utm_medium=api_v3_business_search&utm_source=OvRCQGmWRwMIvAEILCAnZA,355,[],"newamerican,breakfast_brunch",tEGmJOR-nAUmqU2EI_Qw-A
Vero Italian Kitchen,30.0710183,-95.5099673,False,77379,Spring,TX,$,4.5,https://www.yelp.com/biz/vero-italian-kitchen-spring?adjust_creative=OvRCQGmWRwMIvAEILCAnZA&utm_campaign=yelp_api_v3&utm_medium=api_v3_business_search&utm_source=OvRCQGmWRwMIvAEILCAnZA,246,[],italian,TKeCzQAy6mpnwLvhpJ084w
Razzoo's Cajun Cafe,29.63589,-95.58635,False,77477,Stafford,TX,$$,3.0,https://www.yelp.com/biz/razzoos-cajun-cafe-stafford-2?adjust_creative=OvRCQGmWRwMIvAEILCAnZA&utm_campaign=yelp_api_v3&utm_medium=api_v3_business_search&utm_source=OvRCQGmWRwMIvAEILCAnZA,344,[],"cajun,seafood",0JTreCz32EjrOUf7nP7HuQ
Pappadeaux Seafood Kitchen,29.6353824641583,-95.5840073884881,False,77477,Stafford,TX,$$,3.5,https://www.yelp.com/biz/pappadeaux-seafood-kitchen-stafford?adjust_creative=OvRCQGmWRwMIvAEILCAnZA&utm_campaign=yelp_api_v3&utm_medium=api_v3_business_search&utm_source=OvRCQGmWRwMIvAEILCAnZA,278,[],"cajun,seafood",GfRADWmmaDCV3VdPj5-2vQ
Pappasito's Cantina,29.6238281,-95.6003938,False,77478,Sugar Land,TX,$$,3.5,https://www.yelp.com/biz/pappasitos-cantina-sugar-land?adjust_creative=OvRCQGmWRwMIvAEILCAnZA&utm_campaign=yelp_api_v3&utm_medium=api_v3_business_search&utm_source=OvRCQGmWRwMIvAEILCAnZA,266,[],"tex-mex,seafood",AjB5u7SN6Heybe93KJerRg
Berryhill Sugar Land,29.6219617,-95.6000094,False,77478,Sugar Land,TX,$,3.5,https://www.yelp.com/biz/berryhill-sugar-land-sugar-land-2?adjust_creative=OvRCQGmWRwMIvAEILCAnZA&utm_campaign=yelp_api_v3&utm_medium=api_v3_business_search&utm_source=OvRCQGmWRwMIvAEILCAnZA,170,[],"mexican,bars",NywqN-PHTA_a1P6QpBKCmQ
Churrascos Sugar Land,29.6028408,-95.621382,False,77478,Sugar Land,TX,$$$,4.0,https://www.yelp.com/biz/churrascos-sugar-land-sugar-land?adjust_creative=OvRCQGmWRwMIvAEILCAnZA&utm_campaign=yelp_api_v3&utm_medium=api_v3_business_search&utm_source=OvRCQGmWRwMIvAEILCAnZA,285,['pickup'],"latin,seafood,brazilian",a8dP7IMMF48wFRYikQ_1cw
Chuy's,29.6100692140915,-95.6485357475749,False,77478,Sugar Land,TX,$$,3.0,https://www.yelp.com/biz/chuys-sugar-land-2?adjust_creative=OvRCQGmWRwMIvAEILCAnZA&utm_campaign=yelp_api_v3&utm_medium=api_v3_business_search&utm_source=OvRCQGmWRwMIvAEILCAnZA,176,['delivery'],"tex-mex,bars,mexican",YiIe6Hc9ILs9AlRWq3_j1g
The Roof,29.6010693,-95.6296052,False,77478,Sugar Land,TX,$$,3.0,https://www.yelp.com/biz/the-roof-sugar-land?adjust_creative=OvRCQGmWRwMIvAEILCAnZA&utm_campaign=yelp_api_v3&utm_medium=api_v3_business_search&utm_source=OvRCQGmWRwMIvAEILCAnZA,68,[],"tradamerican,lounges",FZYX1JYZrki-cBX601u3pA
BJ's Restaurant & Brewhouse,29.598085,-95.620158,False,77478,Sugar Land,TX,$$,3.0,https://www.yelp.com/biz/bjs-restaurant-and-brewhouse-sugar-land?adjust_creative=OvRCQGmWRwMIvAEILCAnZA&utm_campaign=yelp_api_v3&utm_medium=api_v3_business_search&utm_source=OvRCQGmWRwMIvAEILCAnZA,423,['delivery'],"pizza,breweries,newamerican",84wwd6yQtUuYTncZMvEs1A
bellagreen,29.5973167,-95.6205034,False,77479,Sugar Land,TX,$$,3.5,https://www.yelp.com/biz/bellagreen-sugar-land-2?adjust_creative=OvRCQGmWRwMIvAEILCAnZA&utm_campaign=yelp_api_v3&utm_medium=api_v3_business_search&utm_source=OvRCQGmWRwMIvAEILCAnZA,251,[],"newamerican,gluten_free,salad",xxsmBbr2rma3hcUcxcqBTA
The Middle Spoon,29.5972219483842,-95.6204753289518,False,77479,Sugar Land,TX,$$,4.0,https://www.yelp.com/biz/the-middle-spoon-sugar-land-2?adjust_creative=OvRCQGmWRwMIvAEILCAnZA&utm_campaign=yelp_api_v3&utm_medium=api_v3_business_search&utm_source=OvRCQGmWRwMIvAEILCAnZA,171,"['delivery', 'pickup']","desserts,cocktailbars,gastropubs",0GHVLGiPedjhkdel6yAUgg
Turquoise Grill & Bar,29.5965114993413,-95.6215440612443,False,77479,Sugar Land,TX,$$,4.0,https://www.yelp.com/biz/turquoise-grill-and-bar-sugar-land-2?adjust_creative=OvRCQGmWRwMIvAEILCAnZA&utm_campaign=yelp_api_v3&utm_medium=api_v3_business_search&utm_source=OvRCQGmWRwMIvAEILCAnZA,226,"['pickup', 'delivery']","mediterranean,turkish,greek",YHyYvPerW9tYZQCv8zzD3g
Naseeb Indian Restaurant,29.590978,-95.598558,False,77478,Sugar Land,TX,$$,4.0,https://www.yelp.com/biz/naseeb-indian-restaurant-sugar-land?adjust_creative=OvRCQGmWRwMIvAEILCAnZA&utm_campaign=yelp_api_v3&utm_medium=api_v3_business_search&utm_source=OvRCQGmWRwMIvAEILCAnZA,225,[],"indpak,vegetarian,seafood",-UGMt54qjBOaKCmlyEYc4w
La Madeleine French Bakery & Cafe,29.59432,-95.62097,False,77479,Sugar Land,TX,$$,3.0,https://www.yelp.com/biz/la-madeleine-french-bakery-and-cafe-sugar-land?adjust_creative=OvRCQGmWRwMIvAEILCAnZA&utm_campaign=yelp_api_v3&utm_medium=api_v3_business_search&utm_source=OvRCQGmWRwMIvAEILCAnZA,170,['pickup'],"french,cafes,soup",BPgLStNSXwFBWfgN4NNPEA
The Cheesecake Factory,29.593264,-95.623441,False,77479,Sugar Land,TX,$$,2.5,https://www.yelp.com/biz/the-cheesecake-factory-sugar-land?adjust_creative=OvRCQGmWRwMIvAEILCAnZA&utm_campaign=yelp_api_v3&utm_medium=api_v3_business_search&utm_source=OvRCQGmWRwMIvAEILCAnZA,345,[],"desserts,newamerican",ZFU4MLeddJmfveQJsTdwXQ
Dimassi's Mediterranean Buffet,29.592885,-95.623111,False,77479,Sugar Land,TX,$$,4.0,https://www.yelp.com/biz/dimassis-mediterranean-buffet-sugar-land-2?adjust_creative=OvRCQGmWRwMIvAEILCAnZA&utm_campaign=yelp_api_v3&utm_medium=api_v3_business_search&utm_source=OvRCQGmWRwMIvAEILCAnZA,59,[],"mediterranean,buffets,mideastern",rETP82gneXlLSPhU6x7k5A
Floyds Cajun Seafood - Sugar Land,29.592219523897,-95.6289153503032,False,77479,Sugar Land,TX,$$,3.5,https://www.yelp.com/biz/floyds-cajun-seafood-sugar-land-sugar-land-2?adjust_creative=OvRCQGmWRwMIvAEILCAnZA&utm_campaign=yelp_api_v3&utm_medium=api_v3_business_search&utm_source=OvRCQGmWRwMIvAEILCAnZA,238,[],"steak,seafood,cajun",3No1_3dc_lveYA2ckbnZfw
Nikoz Fusion Grill,29.5917724049276,-95.635079741478,False,77479,Sugar Land,TX,$,4.0,https://www.yelp.com/biz/nikoz-fusion-grill-sugar-land?adjust_creative=OvRCQGmWRwMIvAEILCAnZA&utm_campaign=yelp_api_v3&utm_medium=api_v3_business_search&utm_source=OvRCQGmWRwMIvAEILCAnZA,258,"['delivery', 'pickup']",mediterranean,nim-pVHeHeGrsUKELq_gGQ
Kabob Cafe,29.581975843597,-95.5823794568465,False,77478,Sugar Land,TX,$$,4.0,https://www.yelp.com/biz/kabob-cafe-sugar-land?adjust_creative=OvRCQGmWRwMIvAEILCAnZA&utm_campaign=yelp_api_v3&utm_medium=api_v3_business_search&utm_source=OvRCQGmWRwMIvAEILCAnZA,95,[],"persian,mideastern,mediterranean",nBRBnRIj96L6F0S2shE30w
Dumar's Mediterranean Grill,29.5821788,-95.5855534,False,77498,Sugar Land,TX,$,4.0,https://www.yelp.com/biz/dumars-mediterranean-grill-sugar-land?adjust_creative=OvRCQGmWRwMIvAEILCAnZA&utm_campaign=yelp_api_v3&utm_medium=api_v3_business_search&utm_source=OvRCQGmWRwMIvAEILCAnZA,103,[],"mediterranean,syrian",koaH1B5TLTp4hP_nDPgydQ
Olive Garden Italian Restaurant,29.5875969762567,-95.6339486452196,False,77479,Sugar Land,TX,$$,3.0,https://www.yelp.com/biz/olive-garden-italian-restaurant-sugar-land-2?adjust_creative=OvRCQGmWRwMIvAEILCAnZA&utm_campaign=yelp_api_v3&utm_medium=api_v3_business_search&utm_source=OvRCQGmWRwMIvAEILCAnZA,122,[],"italian,salad",LEVuN5ZnJW2F6fJw65mt1A
